coords,lat,lng,name
"['48.34072', '38.4049']",48.34072,38.4049,"Дебальцеве, Україна"
"['48.67274', '25.50163']",48.67274,25.50163,"Городенка, Україна"
"['46.1161', '32.91124']",46.1161,32.91124,"Скадовськ, Україна"
"['46.65581', '32.6178']",46.65581,32.6178,"Херсон, Україна"
"['50.62308', '26.22743']",50.62308,26.22743,"Рівне, Україна"
"['49.19385', '35.23943']",49.19385,35.23943,"Зачепилівка, Україна"
"['49.55342', '25.58918']",49.55342,25.58918,"Тернопіль, Україна"
"['47.50035', '33.91748']",47.50035,33.91748,"Нововоронцовка, Україна"
"['49.83826', '24.02324']",49.83826,24.02324,"Львів, Україна"
"['50.45466', '30.5238']",50.45466,30.5238,"Київ, Україна"
"['49.98081', '36.25272']",49.98081,36.25272,"Харків, Україна"
"['48.384', '30.46131']",48.384,30.46131,"Голованівськ, Україна"
"['51.24032', '33.20263']",51.24032,33.20263,"Конотоп, Україна"
"['49.96029', '32.1407']",49.96029,32.1407,"Драбів, Україна"
"['47.90966', '33.38044']",47.90966,33.38044,"Кривий Ріг, Україна"
"['49.53748', '26.21568']",49.53748,26.21568,"Волочиськ, Україна"
"['49.96854', '33.60886']",49.96854,33.60886,"Миргород, Україна"
"['49.23278', '28.48097']",49.23278,28.48097,"Вінниця, Україна"
"['47.82289', '35.19031']",47.82289,35.19031,"Запоріжжя, Україна"
"['46.75451', '33.34864']",46.75451,33.34864,"Каховка, Україна"
"['51.86296', '33.4698']",51.86296,33.4698,"Шостка, Україна"
"['48.023', '37.80224']",48.023,37.80224,"Донецьк, Україна"
"['48.67448', '28.84641']",48.67448,28.84641,"Тульчин, Україна"
"['49.26223', '23.85609']",49.26223,23.85609,"Стрий, Україна"
"['50.36253', '28.68913']",50.36253,28.68913,"Піщанка, Україна"
"['49.80956', '26.44227']",49.80956,26.44227,"Теофіполь, Україна"
"['47.95507', '32.53674']",47.95507,32.53674,"Устинівка, Україна"
"['50.65864', '25.55188']",50.65864,25.55188,"Острожець, Україна"
"['46.76644', '36.79872']",46.76644,36.79872,"Бердянськ, Україна"
"['48.56705', '39.31706']",48.56705,39.31706,"Луганськ, Україна"
"['49.42161', '26.99653']",49.42161,26.99653,"Хмельницький, Україна"
"['48.62988', '38.54806']",48.62988,38.54806,"Первомайськ, Україна"
"['48.4593', '35.03865']",48.4593,35.03865,"Дніпропетровськ, Україна"
"['46.47747', '30.73262']",46.47747,30.73262,"Одеса, Україна"
"['48.34493', '33.50374']",48.34493,33.50374,"Жовті Води, Україна"
"['48.01179', '23.57061']",48.01179,23.57061,"Тячів, Україна"
"['50.9216', '34.80029']",50.9216,34.80029,"Суми, Україна"
"['49.42854', '32.06207']",49.42854,32.06207,"Черкаси, Україна"
"['50.29691', '27.6622']",50.29691,27.6622,"Баранівка, Україна"
"['51.04801', '31.88688']",51.04801,31.88688,"Ніжин, Україна"
"['48.02612', '38.77225']",48.02612,38.77225,"Сніжне, Україна"
"['48.29149', '25.94034']",48.29149,25.94034,"Чернівці, Україна"
"['48.81577', '29.97703']",48.81577,29.97703,"Христинівка, Україна"
"['47.09514', '37.54131']",47.09514,37.54131,"Маріуполь, Україна"
"['48.72305', '37.55629']",48.72305,37.55629,"Краматорськ, Україна"
"['51.08203', '28.40057']",51.08203,28.40057,"Лугини, Україна"
"['49.92295', '35.42104']",49.92295,35.42104,"Високопілля, Україна"
"['46.96591', '31.9974']",46.96591,31.9974,"Миколаїв, Україна"
"['49.01179', '26.34203']",49.01179,26.34203,"Чемерівці, Україна"
"['45.3531', '36.47429']",45.3531,36.47429,"Керч, Україна"
"['51.8126', '26.12902']",51.8126,26.12902,"Зарічне, Україна"
"['48.21509', '29.36728']",48.21509,29.36728,"Чечельник, Україна"
"['49.41029', '38.15035']",49.41029,38.15035,"Сватове, Україна"
"['46.84891', '35.36533']",46.84891,35.36533,"Мелітополь, Україна"
"['49.01056', '22.77608']",49.01056,22.77608,"Верховина, Україна"
"['48.08964', '39.65243']",48.08964,39.65243,"Свердловськ, Україна"
"[None, None]",,,"Долиняни, Україна"
"[None, None]",,,"Свершківці, Україна"
"['49.59373', '34.54073']",49.59373,34.54073,"Полтава, Україна"
"['47.9', '36.16667']",47.9,36.16667,"Братське, Україна"
"['50.31911', '30.29728']",50.31911,30.29728,"Боярка, Україна"
"['47.60126', '34.76424']",47.60126,34.76424,"Новокиївка, Україна"
"['50.26487', '28.67669']",50.26487,28.67669,"Житомир, Україна"
"['50.59323', '32.38761']",50.59323,32.38761,"Прилуки, Україна"
"['49.0495', '38.21792']",49.0495,38.21792,"Кремінна, Україна"
"['44.50218', '34.16624']",44.50218,34.16624,"Ялта, Україна"
"['50.75932', '25.34244']",50.75932,25.34244,"Луцьк, Україна"
"['51.5225', '30.71806']",51.5225,30.71806,"Славутич, Україна"
"['48.33576', '38.05325']",48.33576,38.05325,"Горлівка, Україна"
"['48.34887', '36.40266']",48.34887,36.40266,"Першотравенськ, Україна"
"['50.63965', '26.36573']",50.63965,26.36573,"Городище, Україна"
"['48.5132', '32.2597']",48.5132,32.2597,"Кіровоград, Україна"
"['48.44061', '38.732']",48.44061,38.732,"Артемівськ, Україна"
"['51.50551', '31.28487']",51.50551,31.28487,"Чернігів, Україна"
"['48.5277', '37.7069']",48.5277,37.7069,"Костянтинівка, Україна"
"['48.94832', '38.49166']",48.94832,38.49166,"Сєвєродонецьк, Україна"
"['48.32635', '31.52852']",48.32635,31.52852,"Новоукраїнка, Україна"
"['48.66961', '33.11593']",48.66961,33.11593,"Олександрія, Україна"
"['47.56494', '31.33078']",47.56494,31.33078,"Вознесенськ, Україна"
"['50.0767', '29.9177']",50.0767,29.9177,"Фастів, Україна"
"['48.11853', '34.15068']",48.11853,34.15068,"Гуляйполе, Україна"
"['48.51134', '34.6021']",48.51134,34.6021,"Дніпродзержинськ, Україна"
"['49.03462', '27.23617']",49.03462,27.23617,"Віньківці, Україна"
"['48.57802', '22.85609']",48.57802,22.85609,"Синяк, Україна"
"['50.32942', '26.51425']",50.32942,26.51425,"Острог, Україна"
"['49.08376', '32.65549']",49.08376,32.65549,"Чигирин, Україна"
"['48.90485', '38.44207']",48.90485,38.44207,"Лисичанськ, Україна"
"['47.30778', '31.78506']",47.30778,31.78506,"Нова Одеса, Україна"
"[None, None]",,,"Коббеве (б/в ""Зоря""), Україна"
"['49.78465', '23.64806']",49.78465,23.64806,"Городок, Україна"
"['49.14892', '34.19653']",49.14892,34.19653,"Кобеляки, Україна"
"['49.55979', '27.95754']",49.55979,27.95754,"Хмільник, Україна"
"['44.95719', '34.11079']",44.95719,34.11079,"Сімферополь, Україна"
"['48.9909', '29.8047']",48.9909,29.8047,"Монастирище, Україна"
"['48.7689', '29.92343']",48.7689,29.92343,"Талалаївка, Україна"
"['50.20806', '34.36376']",50.20806,34.36376,"Зіньків, Україна"
"['49.47254', '24.13543']",49.47254,24.13543,"Новий Розділ, Україна"
"['48.98837', '37.80225']",48.98837,37.80225,"Красний Лиман, Україна"
"['48.48429', '34.01398']",48.48429,34.01398,"Вільногірськ, Україна"
"['48.89009', '23.83721']",48.89009,23.83721,"Новий Мізунь, Україна"
"['48.46893', '38.81669']",48.46893,38.81669,"Алчевськ, Україна"
"['50.91542', '25.26906']",50.91542,25.26906,"Рожище, Україна"
"['48.28198', '37.17585']",48.28198,37.17585,"Красноармійськ, Україна"
"['49.80597', '24.89436']",49.80597,24.89436,"Золочів, Україна"
"['50.9506', '30.88229']",50.9506,30.88229,"Остер, Україна"
"['48.1793', '23.29909']",48.1793,23.29909,"Хуст, Україна"
"['50.72576', '24.16265']",50.72576,24.16265,"Нововолинськ, Україна"
"['50.44', '24.36277']",50.44,24.36277,"Романівка, Україна"
"['45.71168', '34.39274']",45.71168,34.39274,"Джанкой, Україна"
"['48.13954', '38.93715']",48.13954,38.93715,"Красний Луч, Україна"
"['50.41694', '25.73432']",50.41694,25.73432,"Дубно, Україна"
"['48.54553', '26.10526']",48.54553,26.10526,"Горошова, Україна"
"['48.61667', '22.3']",48.61667,22.3,"Ужгород, Україна"
"[None, None]",,,"Слов'янськ, Україна"
"['51.33795', '26.60191']",51.33795,26.60191,"Сарни, Україна"
"['48.64308', '31.63657']",48.64308,31.63657,"Мала Виска, Україна"
"['46.37592', '35.36753']",46.37592,35.36753,"Кирилівка, Україна"
"['50.00509', '25.51183']",50.00509,25.51183,"Почаїв, Україна"
"['47.43694', '35.27417']",47.43694,35.27417,"Василівка, Україна"
"['49.66357', '25.77616']",49.66357,25.77616,"Збараж, Україна"
"['50.58518', '34.4849']",50.58518,34.4849,"Лебедин, Україна"
"['50.34004', '26.64171']",50.34004,26.64171,"Нетішин, Україна"
"['48.64331', '25.73794']",48.64331,25.73794,"Заліщики, Україна"
"['48.53115', '25.03649']",48.53115,25.03649,"Коломия, Україна"
"['49.01187', '24.37308']",49.01187,24.37308,"Калуш, Україна"
"['50.09693', '25.72459']",50.09693,25.72459,"Кременець, Україна"
"['48.44942', '33.68629']",48.44942,33.68629,"Авангард, Україна"
"['51.5835', '27.34463']",51.5835,27.34463,"Березове, Україна"
"['49.32509', '28.08094']",49.32509,28.08094,"Літин, Україна"
"['48.03876', '38.59685']",48.03876,38.59685,"Торез, Україна"
"['51.55297', '24.38196']",51.55297,24.38196,"Дубечне, Україна"
"['47.57119', '34.39637']",47.57119,34.39637,"Нікополь, Україна"
"['48.807', '24.53834']",48.807,24.53834,"Богородчани, Україна"
"['48.83716', '27.27434']",48.83716,27.27434,"Нова Ушиця, Україна"
"[None, None]",,,"Святогірськ, Україна"
"['49.89928', '28.60235']",49.89928,28.60235,"Бердичів, Україна"
"['49.43544', '25.15086']",49.43544,25.15086,"Козова, Україна"
"['51.67822', '33.9162']",51.67822,33.9162,"Глухів, Україна"
"['49.80311', '28.72132']",49.80311,28.72132,"Глухівці, Україна"
"['50.18545', '27.06365']",50.18545,27.06365,"Шепетівка, Україна"
"['49.27832', '38.91069']",49.27832,38.91069,"Старобільськ, Україна"
"['48.74838', '30.22184']",48.74838,30.22184,"Умань, Україна"
"['49.75182', '31.46004']",49.75182,31.46004,"Канів, Україна"
"['51.56351', '26.90628']",51.56351,26.90628,"Озера, Україна"
"['48.44648', '24.55019']",48.44648,24.55019,"Яремча, Україна"
"['49.03324', '24.02589']",49.03324,24.02589,"Долинська, Україна"
"[None, None]",,,"Гадян, Україна"
"['48.65803', '30.81821']",48.65803,30.81821,"Новоархангельськ, Україна"
"['48.56818', '38.64352']",48.56818,38.64352,"Стаханов, Україна"
"['49.01709', '25.79804']",49.01709,25.79804,"Чортків, Україна"
"['49.21114', '25.92165']",49.21114,25.92165,"Хоростків, Україна"
"['48.11503', '39.09128']",48.11503,39.09128,"Антрацит, Україна"
"['48.81631', '24.19026']",48.81631,24.19026,"Перегінське, Україна"
"['48.44692', '25.56937']",48.44692,25.56937,"Снятин, Україна"
"['48.44747', '27.41678']",48.44747,27.41678,"Сокиряни, Україна"
"['51.3509', '25.84738']",51.3509,25.84738,"Кузнецовськ, Україна"
"['50.36776', '33.26024']",50.36776,33.26024,"Лохвиця, Україна"
"['49.78001', '31.35298']",49.78001,31.35298,"Тростянець, Україна"
"['48.05657', '38.43826']",48.05657,38.43826,"Шахтарськ, Україна"
"['48.68496', '29.23679']",48.68496,29.23679,"Ладижин, Україна"
"['49.04894', '33.24106']",49.04894,33.24106,"Світловодськ, Україна"
"['50.37112', '33.99099']",50.37112,33.99099,"Гадяч, Україна"
"['50.12994', '25.25576']",50.12994,25.25576,"Радивилів, Україна"
"['47.98305', '33.266']",47.98305,33.266,"Інгулець, Україна"
"['49.01018', '33.63567']",49.01018,33.63567,"Комсомольськ, Україна"
"['51.61332', '27.13338']",51.61332,27.13338,"Старе село, Україна"
"['49.5341', '38.73067']",49.5341,38.73067,"Білокуракине, Україна"
"['47.17572', '33.94362']",47.17572,33.94362,"Велика Лепетиха, Україна"
"['51.21526', '24.70867']",51.21526,24.70867,"Ковель, Україна"
"['49.06802', '33.42041']",49.06802,33.42041,"Кременчук, Україна"
"['46.75451', '33.34864']",46.75451,33.34864,"Нова Каховка, Україна"
"['48.40514', '29.24775']",48.40514,29.24775,"Ободівка, Україна"
"['49.45', '24.93333']",49.45,24.93333,"Бережани, Україна"
"['49.60321', '32.86761']",49.60321,32.86761,"Оболонь, Україна"
"['45.34929', '28.84079']",45.34929,28.84079,"Ізмаїл, Україна"
"[None, None]",,,"Щацьк, Україна"
"['49.5464', '39.08987']",49.5464,39.08987,"Новопсков, Україна"
"['51.5217', '32.21568']",51.5217,32.21568,"Мена, Україна"
"['50.12157', '26.11424']",50.12157,26.11424,"Шумськ, Україна"
"['47.49865', '34.6574']",47.49865,34.6574,"Енергодар, Україна"
"['49.66968', '27.01354']",49.66968,27.01354,"Красилів, Україна"
"['50.39105', '24.23514']",50.39105,24.23514,"Червоноград, Україна"
"['50.12424', '27.51087']",50.12424,27.51087,"Полонне, Україна"
"['48.52254', '36.08256']",48.52254,36.08256,"Тернівка, Україна"
"['48.04701', '35.13977']",48.04701,35.13977,"Ульяновка, Україна"
"['50.98478', '32.92078']",50.98478,32.92078,"Гайворон, Україна"
"['51.89085', '31.59741']",51.89085,31.59741,"Городня, Україна"
"['48.43919', '22.71779']",48.43919,22.71779,"Мукачево, Україна"
"['50.77233', '29.23833']",50.77233,29.23833,"Малин, Україна"
"['50.50276', '31.78492']",50.50276,31.78492,"Згурівка, Україна"
"['49.15166', '35.87198']",49.15166,35.87198,"Сахновщина, Україна"
"['49.28672', '23.43238']",49.28672,23.43238,"Борислав, Україна"
"[None, None]",,,"Колодрібка, Україна"
"['49.15652', '23.87232']",49.15652,23.87232,"Моршин, Україна"
"['49.10479', '29.21773']",49.10479,29.21773,"Іллінці, Україна"
"['48.6348', '24.56936']",48.6348,24.56936,"Надвірна, Україна"
"['48.80332', '26.04347']",48.80332,26.04347,"Борщів, Україна"
"['51.29405', '25.53436']",51.29405,25.53436,"Маневичі, Україна"
"['49.01229', '38.37967']",49.01229,38.37967,"Рубіжне, Україна"
"['47.94604', '23.87035']",47.94604,23.87035,"Солотвино, Україна"
"['49.07866', '30.96755']",49.07866,30.96755,"Звенигородка, Україна"
"['50.26732', '32.94196']",50.26732,32.94196,"Чорнухи, Україна"
"['48.29235', '39.73921']",48.29235,39.73921,"Краснодон, Україна"
"['48.53426', '35.87098']",48.53426,35.87098,"Павлоград, Україна"
"['50.02314', '33.94144']",50.02314,33.94144,"Великі Сорочинці, Україна"
"['50.92731', '30.76048']",50.92731,30.76048,"Десна, Україна"
"['51.4213', '26.14469']",51.4213,26.14469,"Володимирець, Україна"
"['48.05896', '32.16641']",48.05896,32.16641,"Бобринець, Україна"
"['51.81865', '31.94504']",51.81865,31.94504,"Щорс, Україна"
"['49.20875', '37.24849']",49.20875,37.24849,"Ізюм, Україна"
"[None, None]",,,"Побузьке, Україна"
"['49.28656', '35.76153']",49.28656,35.76153,"Кегичівка, Україна"
"['48.23331', '38.21137']",48.23331,38.21137,"Єнакієве, Україна"
"['50.31036', '34.89879']",50.31036,34.89879,"Охтирка, Україна"
"['50.75104', '33.47471']",50.75104,33.47471,"Ромни, Україна"
"['51.76877', '32.24813']",51.76877,32.24813,"Корюківка, Україна"
"['50.42814', '25.33619']",50.42814,25.33619,"Демидівка, Україна"
"['49.55832', '30.49259']",49.55832,30.49259,"Тараща, Україна"
"['49.53472', '26.14585']",49.53472,26.14585,"Підволочиськ, Україна"
"['48.73407', '31.13403']",48.73407,31.13403,"Надлак, Україна"
"['46.85262', '31.38802']",46.85262,31.38802,"Березанка, Україна"
"['48.38289', '28.86622']",48.38289,28.86622,"Крижопіль, Україна"
"['49.48639', '29.26361']",49.48639,29.26361,"Погребище, Україна"
"['46.84842', '34.38044']",46.84842,34.38044,"Нижні Сірогози, Україна"
"['48.9733', '24.00944']",48.9733,24.00944,"Долина, Україна"
"['47.75', '38.5']",47.75,38.5,"Амвросїівка, Україна"
"['47.55699', '37.07655']",47.55699,37.07655,"Красна Поляна, Україна"
"['49.01502', '31.06211']",49.01502,31.06211,"Ватутіне, Україна"
"['49.0729', '26.1848']",49.0729,26.1848,"Гусятин, Україна"
"['49.38009', '35.44186']",49.38009,35.44186,"Красноград, Україна"
"['48.31071', '25.09575']",48.31071,25.09575,"Косів, Україна"
"['48.41217', '35.86536']",48.41217,35.86536,"Троїцьке, Україна"
"['47.63543', '34.62769']",47.63543,34.62769,"Марганець, Україна"
"['49.86249', '28.21449']",49.86249,28.21449,"Іванопіль, Україна"
"[None, None]",,,"Плужне, Україна"
"['49.5183', '23.19752']",49.5183,23.19752,"Самбір, Україна"
"['45.89886', '34.8781']",45.89886,34.8781,"Стрілкове, Україна"
"['48.74312', '24.16939']",48.74312,24.16939,"Ясень, Україна"
"['44.58883', '33.5224']",44.58883,33.5224,"Севастополь, Україна"
"['49.27837', '23.50618']",49.27837,23.50618,"Трускавець, Україна"
"['48.73963', '39.2323']",48.73963,39.2323,"Щастя, Україна"
"['49.25229', '30.82946']",49.25229,30.82946,"Лисянка, Україна"
"['51.37893', '28.34967']",51.37893,28.34967,"Словечне, Україна"
"['49.75764', '27.20342']",49.75764,27.20342,"Старокостянтинів, Україна"
"['48.63328', '38.37804']",48.63328,38.37804,"Попасна, Україна"
"['49.10441', '25.91026']",49.10441,25.91026,"Копичинці, Україна"
"['48.43528', '24.74725']",48.43528,24.74725,"Лючки, Україна"
"['47.93548', '29.61982']",47.93548,29.61982,"Балта, Україна"
"['47.81777', '31.18263']",47.81777,31.18263,"Южноукраїнськ, Україна"
"['49.06254', '25.38798']",49.06254,25.38798,"Бучач, Україна"
"['50.86258', '32.39425']",50.86258,32.39425,"Ічня, Україна"
"['48.81143', '29.38977']",48.81143,29.38977,"Гайсин, Україна"
"['47.75305', '29.53205']",47.75305,29.53205,"Котовськ, Україна"
"['46.084', '32.52955']",46.084,32.52955,"Лазурне, Україна"
"['48.71278', '32.66472']",48.71278,32.66472,"Знам'янка, Україна"
"['48.68913', '26.58867']",48.68913,26.58867,"Кам'янець, Україна"
"['49.66644', '32.32932']",49.66644,32.32932,"Чорнобай, Україна"
"['48.88937', '36.31755']",48.88937,36.31755,"Лозова, Україна"
"['48.04911', '23.42113']",48.04911,23.42113,"Вишково, Україна"
"[None, None]",,,"Лісова Пісня, Україна"
"['49.01979', '31.47027']",49.01979,31.47027,"Мар'янівка, Україна"
"['45.20091', '33.36655']",45.20091,33.36655,"Євпаторія, Україна"
"[None, None]",,,"Грималів, Україна"
"[None, None]",,,"Тюдів, Україна"
"['47.52366', '35.9943']",47.52366,35.9943,"Білогір'я, Україна"
"['49.22242', '31.88714']",49.22242,31.88714,"Сміла, Україна"
"['48.36782', '29.51726']",48.36782,29.51726,"Бершадь, Україна"
"['52.06314', '31.18567']",52.06314,31.18567,"Добровеличківка, Україна"
"['50.31981', '34.60894']",50.31981,34.60894,"Качанівка, Україна"
"['48.24801', '25.19452']",48.24801,25.19452,"Вижниця, Україна"
"['48.25868', '25.17946']",48.25868,25.17946,"Кути, Україна"
"[None, None]",,,"Берщадь, Україна"
"['48.30904', '28.26982']",48.30904,28.26982,"Радянське, Україна"
"['49.66832', '32.04047']",49.66832,32.04047,"Золотоноша, Україна"
"['52.17827', '32.58183']",52.17827,32.58183,"Семенівка, Україна"
"['48.18298', '29.48243']",48.18298,29.48243,"Ольгопіль, Україна"
"['48.88909', '26.85636']",48.88909,26.85636,"Дунаївці, Україна"
"['48.08331', '39.37764']",48.08331,39.37764,"Ровеньки, Україна"
"['51.56638', '32.95861']",51.56638,32.95861,"Короп, Україна"
"[None, None]",,,"Верхній Березів, Україна"
"['50.02248', '29.05821']",50.02248,29.05821,"Лисівка, Україна"
"['50.95937', '28.63855']",50.95937,28.63855,"Коростень, Україна"
"['48.04782', '37.92576']",48.04782,37.92576,"Макіївка, Україна"
"['48.18127', '37.34801']",48.18127,37.34801,"Маринівка, Україна"
"['50.06864', '34.75862']",50.06864,34.75862,"Котельва, Україна"
"['50.93311', '29.09513']",50.93311,29.09513,"Кам'янка, Україна"
"['51.76535', '25.5142']",51.76535,25.5142,"Любешів, Україна"
"['48.66566', '29.74504']",48.66566,29.74504,"Теплик, Україна"
"['50.69296', '28.63446']",50.69296,28.63446,"Борова, Україна"
"[None, None]",,,"Радьковські Піски, Україна"
"['50.11947', '26.82125']",50.11947,26.82125,"Ізяслав, Україна"
"['47.25053', '34.33797']",47.25053,34.33797,"Верхній Рогачик, Україна"
"[None, None]",,,"Даріївка, Україна"
"['51.29878', '30.91968']",51.29878,30.91968,"Гончарівське, Україна"
"['48.91049', '33.78557']",48.91049,33.78557,"Деріївка, Україна"
"['50.47438', '24.28288']",50.47438,24.28288,"Сокаль, Україна"
"['48.13219', '30.08247']",48.13219,30.08247,"Саврань, Україна"
"['46.66499', '31.20804']",46.66499,31.20804,"Коблеве, Україна"
"['51.42373', '26.22811']",51.42373,26.22811,"Дубівка, Україна"
"['49.80939', '30.11209']",49.80939,30.11209,"Біла Церква, Україна"
"['47.77714', '29.2764']",47.77714,29.2764,"Бурилове, Україна"
"['51.86683', '32.22397']",51.86683,32.22397,"Турівка, Україна"
"['50.39082', '32.0602']",50.39082,32.0602,"Гречана гребля, Україна"
"['47.56731', '35.78575']",47.56731,35.78575,"Оріхів, Україна"
"['47.31969', '33.30373']",47.31969,33.30373,"Велика Олександрівка, Україна"
"['50.08791', '25.15027']",50.08791,25.15027,"Броди, Україна"
"['50.77458', '35.25965']",50.77458,35.25965,"Краснопілля, Україна"
"['46.30495', '30.65478']",46.30495,30.65478,"Іллічівськ, Україна"
"['48.9097', '37.02051']",48.9097,37.02051,"Барвінкове, Україна"
"['49.38468', '24.14254']",49.38468,24.14254,"Жидачів, Україна"
"[None, None]",,,"Сирове, Україна"
"['47.30783', '32.84993']",47.30783,32.84993,"Березнегувате, Україна"
"['50.27975', '31.76246']",50.27975,31.76246,"Яготин, Україна"
"['49.5287', '24.77503']",49.5287,24.77503,"Нараїв, Україна"
"['51.81938', '34.02691']",51.81938,34.02691,"Первомайське, Україна"
"['50.52175', '30.25055']",50.52175,30.25055,"Ірпінь, Україна"
"['49.07717', '27.68256']",49.07717,27.68256,"Бар, Україна"
"['51.48211', '23.85904']",51.48211,23.85904,"Світязь, Україна"
"['51.6683', '24.5303']",51.6683,24.5303,"Ратне, Україна"
"['51.3246', '28.80351']",51.3246,28.80351,"Овруч, Україна"
"['51.79419', '33.05582']",51.79419,33.05582,"Свердловка, Україна"
"['50.74693', '31.3948']",50.74693,31.3948,"Бобровиця, Україна"
"['51.08744', '30.96883']",51.08744,30.96883,"Борсуків, Україна"
"['51.1579', '31.04331']",51.1579,31.04331,"Вовчок, Україна"
"['48.39869', '37.84787']",48.39869,37.84787,"Дзержинськ, Україна"
"['47.66763', '34.05957']",47.66763,34.05957,"Орджонікідзе, Україна"
"['49.25426', '26.26896']",49.25426,26.26896,"Сатанів, Україна"
"['49.17268', '32.37887']",49.17268,32.37887,"Медведівка, Україна"
"[None, None]",,,"Рудник Леніна, Україна"
"['45.45518', '29.26367']",45.45518,29.26367,"Кілія, Україна"
"['47.83716', '30.25976']",47.83716,30.25976,"Любашівка, Україна"
"['49.409', '24.60927']",49.409,24.60927,"Рогатин, Україна"
"['49.92045', '27.75918']",49.92045,27.75918,"Любар, Україна"
"[None, None]",,,"Довга Пристань, Україна"
"['48.57768', '39.71944']",48.57768,39.71944,"Макарів, Україна"
"[None, None]",,,"Потичище, Україна"
"['51.83158', '30.7174']",51.83158,30.7174,"Радуль, Україна"
"['51.80363', '25.51515']",51.80363,25.51515,"Підкормілля, Україна"
"['50.37332', '27.98742']",50.37332,27.98742,"Довбиш, Україна"
"['48.78105', '31.64204']",48.78105,31.64204,"Новомиргород, Україна"
"['46.11667', '32.28333']",46.11667,32.28333,"Залізний Порт, Україна"
"['48.4379', '34.32061']",48.4379,34.32061,"Любомирівка, Україна"
"['49.00687', '31.39471']",49.00687,31.39471,"Шпола, Україна"
"[None, None]",,,"Чернгів, Україна"
"['48.37889', '34.04201']",48.37889,34.04201,"Катеринопіль, Україна"
"['48.09875', '29.12463']",48.09875,29.12463,"Кодима, Україна"
"['49.66484', '25.14097']",49.66484,25.14097,"Зборів, Україна"
"['46.61283', '31.54982']",46.61283,31.54982,"Очаків, Україна"
"['49.72752', '33.98334']",49.72752,33.98334,"Сагайдак, Україна"
"['49.7901', '32.69941']",49.7901,32.69941,"Оржиця, Україна"
"['45.03677', '35.37789']",45.03677,35.37789,"Феодосія, Україна"
"['48.32991', '24.82052']",48.32991,24.82052,"Космач, Україна"
"['49.56231', '29.48282']",49.56231,29.48282,"Бабинці, Україна"
"['47.85469', '34.11198']",47.85469,34.11198,"Іванівка, Україна"
"['51.25464', '32.4269']",51.25464,32.4269,"Борзна, Україна"
"[None, None]",,,"Куп'янськ, Україна"
"['47.33351', '29.87327']",47.33351,29.87327,"Затишшя, Україна"
"['49.03705', '28.11201']",49.03705,28.11201,"Жмеринка, Україна"
"['50.84641', '31.82574']",50.84641,31.82574,"Шатура, Україна"
"['51.8713', '34.14621']",51.8713,34.14621,"Смоліне, Україна"
"['48.63799', '35.24548']",48.63799,35.24548,"Новомосковськ, Україна"
"['49.55849', '38.45361']",49.55849,38.45361,"Маньківка, Україна"
"['50.75095', '28.72387']",50.75095,28.72387,"Іршанськ, Україна"
"['51.2796', '27.214']",51.2796,27.214,"Рокитне, Україна"
"['48.75587', '28.07507']",48.75587,28.07507,"Шаргород, Україна"
"['51.57438', '26.56503']",51.57438,26.56503,"Дубровиця, Україна"
"['51.49233', '25.27986']",51.49233,25.27986,"Надрічне, Україна"
"['45.58751', '32.84501']",45.58751,32.84501,"Міжводне, Україна"
"['48.46503', '26.83457']",48.46503,26.83457,"Кельменці, Україна"
"['49.25867', '24.62777']",49.25867,24.62777,"Бурштин, Україна"
"['48.43198', '22.20555']",48.43198,22.20555,"Чоп, Україна"
"['49.9532', '29.45265']",49.9532,29.45265,"Попільня, Україна"
"[None, None]",,,"Великі Дедеркали, Україна"
"['47.11448', '32.97518']",47.11448,32.97518,"Калінінське, Україна"
"['48.21354', '30.01558']",48.21354,30.01558,"Завалля, Україна"
"['50.40519', '33.40582']",50.40519,33.40582,"Червонозаводське, Україна"
"['49.60318', '27.61909']",49.60318,27.61909,"Стара синява, Україна"
"['51.22482', '27.65228']",51.22482,27.65228,"Олевськ, Україна"
"['48.9215', '24.70972']",48.9215,24.70972,"Івано-Франківськ, Україна"
"['48.85149', '26.19909']",48.85149,26.19909,"Скала-Подільська, Україна"
"['50.35269', '30.95501']",50.35269,30.95501,"Бориспіль, Україна"
"['48.6845', '26.58559']",48.6845,26.58559,"Кам'янець-Подільський, Україна"
"['48.44598', '27.7982']",48.44598,27.7982,"Могилів-Подільський, Україна"
"['46.07251', '30.46538']",46.07251,30.46538,"Затока, Україна"
"['50.59412', '27.6165']",50.59412,27.6165,"Новоград-Волинський, Україна"
"['50.80697', '27.31676']",50.80697,27.31676,"Городниця, Україна"
"[None, None]",,,"Новоград-Сіверський, Україна"
"[None, None]",,,"Росашани, Україна"
"['51.62412', '24.95864']",51.62412,24.95864,"Камінь, Україна"
"['50.50186', '24.76149']",50.50186,24.76149,"Горохів, Україна"
"['52.04545', '33.94517']",52.04545,33.94517,"Дружба, Україна"
"['48.50322', '24.83903']",48.50322,24.83903,"Марковка, Україна"
"['51.62412', '24.95864']",51.62412,24.95864,"Камінь-Каширський, Україна"
"['49.12179', '24.72578']",49.12179,24.72578,"Галич, Україна"
"['49.08909', '25.17327']",49.08909,25.17327,"Монастириська, Україна"
"['49.41894', '31.25865']",49.41894,31.25865,"Корсунь-Шевченківський, Україна"
"['52.00577', '33.2615']",52.00577,33.2615,"Новгород-Сіверський, Україна"
"['52.2967', '32.56979']",52.2967,32.56979,"Жовтневе, Україна"
"['47.48481', '34.41146']",47.48481,34.41146,"Кам'янка-Дніпровська, Україна"
"['48.77607', '25.87548']",48.77607,25.87548,"Більче, Україна"
"['48.54225', '28.11473']",48.54225,28.11473,"Чернівці (Вінницька область), Україна"
"['50.44295', '25.97751']",50.44295,25.97751,"Заруддя, Україна"
"['51.50551', '31.28487']",51.50551,31.28487,"Чернігів, Чернігівська область"
"['51.80105', '31.08383']",51.80105,31.08383,"Ріпки, Чернігівська область"
"['51.34567', '32.87794']",51.34567,32.87794,"Батурин, Чернігівська область"
"['51.25464', '32.4269']",51.25464,32.4269,"Борзна, Чернігівська область"
"['51.04801', '31.88688']",51.04801,31.88688,"Ніжин, Чернігівська область"
"['51.52387', '32.49985']",51.52387,32.49985,"Сосниця, Чернігівська область"
"['51.79419', '33.05582']",51.79419,33.05582,"Свердловка, Чернігівська область"
"['51.59374', '32.78931']",51.59374,32.78931,"Конятин, Чернігівська область"
"['51.89085', '31.59741']",51.89085,31.59741,"Городня, Чернігівська область"
"[None, None]",,,"Б.Вороб'ївська, Чернігівська область"
"['50.66384', '32.91867']",50.66384,32.91867,"Срібне, Чернігівська область"
"['51.56638', '32.95861']",51.56638,32.95861,"Короп, Чернігівська область"
"['51.42369', '32.99422']",51.42369,32.99422,"Атюша, Чернігівська область"
"['51.72622', '32.85255']",51.72622,32.85255,"Понорниця, Чернігівська область"
"['51.82308', '33.07011']",51.82308,33.07011,"Мезин, Чернігівська область"
"['51.18144', '32.83463']",51.18144,32.83463,"Бахмач, Чернігівська область"
"['50.49503', '32.71968']",50.49503,32.71968,"Варва, Чернігівська область"
"['50.86258', '32.39425']",50.86258,32.39425,"Ічня, Чернігівська область"
"['50.59323', '32.38761']",50.59323,32.38761,"Прилуки, Чернігівська область"
"['51.81865', '31.94504']",51.81865,31.94504,"Щорс, Чернігівська область"
"['50.91334', '31.1214']",50.91334,31.1214,"Козелець, Чернігівська область"
"['51.37345', '31.64661']",51.37345,31.64661,"Куликівка, Чернігівська область"
"['50.74693', '31.3948']",50.74693,31.3948,"Бобровиця, Чернігівська область"
"['50.9506', '30.88229']",50.9506,30.88229,"Остер, Чернігівська область"
"['51.70684', '33.14009']",51.70684,33.14009,"Розльоти, Чернігівська область"
"['51.51547', '32.70726']",51.51547,32.70726,"Шабалинів, Чернігівська область"
"[None, None]",,,"Н.Сіверський, Чернігівська область"
"['51.76877', '32.24813']",51.76877,32.24813,"Корюківка, Чернігівська область"
"['50.95783', '31.92085']",50.95783,31.92085,"Талалаївка, Чернігівська область"
"['51.11814', '32.43403']",51.11814,32.43403,"Плиски, Чернігівська область"
"['51.5217', '32.21568']",51.5217,32.21568,"Мена, Чернігівська область"
"['51.7026', '30.65692']",51.7026,30.65692,"Любеч, Чернігівська область"
"['50.1396', '32.12512']",50.1396,32.12512,"Шрамківка, Черкаська область"
"['49.42854', '32.06207']",49.42854,32.06207,"Черкаси, Черкаська область"
"['49.93936', '31.93198']",49.93936,31.93198,"Безпальче, Черкаська область"
"['50.19217', '32.0897']",50.19217,32.0897,"Кононівка, Черкаська область"
"['49.66832', '32.04047']",49.66832,32.04047,"Золотоноша, Черкаська область"
"['49.0318', '32.10396']",49.0318,32.10396,"Кам'янка, Черкаська область"
"['49.75182', '31.46004']",49.75182,31.46004,"Канів, Черкаська область"
"[None, None]",,,"Потоки, Черкаська область"
"['49.25229', '30.82946']",49.25229,30.82946,"Лисянка, Черкаська область"
"['48.96349', '30.33366']",48.96349,30.33366,"Маньківка, Черкаська область"
"['48.9909', '29.8047']",48.9909,29.8047,"Монастирище, Черкаська область"
"[None, None]",,,"Сміла (ст. Шевченка), Черкаська область"
"['49.22242', '31.88714']",49.22242,31.88714,"Сміла, Черкаська область"
"['48.74838', '30.22184']",48.74838,30.22184,"Умань, Черкаська область"
"[None, None]",,,"Мелітополь, Черкаська область"
"['49.24545', '30.1102']",49.24545,30.1102,"Жашків, Черкаська область"
"['48.81577', '29.97703']",48.81577,29.97703,"Христинівка, Черкаська область"
"['49.28489', '31.44513']",49.28489,31.44513,"Городище, Черкаська область"
"['49.08376', '32.65549']",49.08376,32.65549,"Чигирин, Черкаська область"
"['49.24924', '31.00756']",49.24924,31.00756,"Моринці, Черкаська область"
"['49.01502', '31.06211']",49.01502,31.06211,"Ватутіне, Черкаська область"
"['48.9553', '30.96823']",48.9553,30.96823,"Катеринопіль, Черкаська область"
"['48.87528', '30.88228']",48.87528,30.88228,"Колодисте, Черкаська область"
"[None, None]",,,"Запоріжжя, Черкаська область"
"[None, None]",,,"Енергодар, Черкаська область"
"['49.38091', '32.68108']",49.38091,32.68108,"Жовнине, Черкаська область"
"['49.66644', '32.32932']",49.66644,32.32932,"Чорнобай, Черкаська область"
"['48.76442', '30.97396']",48.76442,30.97396,"Ямпіль, Черкаська область"
"[None, None]",,,"Москаленики, Черкаська область"
"['49.07866', '30.96755']",49.07866,30.96755,"Звенигородка, Черкаська область"
"['49.53856', '32.55775']",49.53856,32.55775,"Степове, Черкаська область"
"['48.99062', '30.98818']",48.99062,30.98818,"Єрки, Черкаська область"
"['49.39963', '30.96799']",49.39963,30.96799,"Сидорівка, Черкаська область"
"[None, None]",,,"Ярошівка, Черкаська область"
"['50.11919', '32.24892']",50.11919,32.24892,"Степанівка, Черкаська область"
"['49.96029', '32.1407']",49.96029,32.1407,"Драбів, Черкаська область"
"['50.17053', '32.05794']",50.17053,32.05794,"Ковалівка, Черкаська область"
"['49.94131', '32.37656']",49.94131,32.37656,"Білоусівка, Черкаська область"
"[None, None]",,,"В.Згарська, Черкаська область"
"['49.8371', '32.33459']",49.8371,32.33459,"Богданівка, Черкаська область"
"['50.00482', '32.30342']",50.00482,32.30342,"Перервинці, Черкаська область"
"[None, None]",,,"м.Золотоноша, Черкаська область"
"[None, None]",,,"Кобилянка, Черкаська область"
"[None, None]",,,"Корсунь АС — Драбівка                                 (через с, Черкаська область"
"[None, None]",,,"Корсунь АС —Бровахи                                                                  (через с.Кірове,с.Буда, Черкаська область"
"[None, None]",,,"Корсунь АС —Виграїв ( через с.Моринці,с.Нехворощ,с, Черкаська область"
"[None, None]",,,"ст. ім.Т.Шевченка, Черкаська область"
"['49.16189', '31.9308']",49.16189,31.9308,"Велика Яблунівка, Черкаська область"
"[None, None]",,,"Сміла (райлікарня), Черкаська область"
"['48.88877', '30.69482']",48.88877,30.69482,"Тальне, Черкаська область"
"[None, None]",,,"с. Ліщинівка, Черкаська область"
"['49.37281', '32.15742']",49.37281,32.15742,"Червона Слобода, Черкаська область"
"['49.45167', '31.9504']",49.45167,31.9504,"Геронимівка, Черкаська область"
"['49.52754', '31.73708']",49.52754,31.73708,"Мошни, Черкаська область"
"['49.72579', '32.51869']",49.72579,32.51869,"Хрестителеве, Черкаська область"
"['49.00687', '31.39471']",49.00687,31.39471,"Шпола, Черкаська область"
"[None, None]",,,"Мар’ївка (ЗА), Донецька область"
"['48.40642', '37.18111']",48.40642,37.18111,"Білицьке, Донецька область"
"['48.59559', '37.99987']",48.59559,37.99987,"Бахмут, Донецька область"
"[None, None]",,,"Слов’янськ, Донецька область"
"['48.72305', '37.55629']",48.72305,37.55629,"Краматорськ, Донецька область"
"['47.09514', '37.54131']",47.09514,37.54131,"Маріуполь, Донецька область"
"[None, None]",,,"Покровськ (АС), Донецька область"
"[None, None]",,,"Павлівка (ЗА), Донецька область"
"['47.78031', '37.25064']",47.78031,37.25064,"Вугледар, Донецька область"
"[None, None]",,,"Волноваха (АС), Донецька область"
"[None, None]",,,"Златоустівка (ЗА), Донецька область"
"['48.14708', '37.30032']",48.14708,37.30032,"Селидове, Донецька область"
"[None, None]",,,"Велика Новосілка (АС), Донецька область"
"[None, None]",,,"Торське (ЗА), Донецька область"
"[None, None]",,,"Костянтинівка (ДС КВПК АС Краматорськ м. Костянтинівка вул. Ломоносова), Донецька область"
"[None, None]",,,"Святогірськ (АС), Донецька область"
"[None, None]",,,"Торецьк (АС), Донецька область"
"[None, None]",,,"Курахове (АС), Донецька область"
"['48.5277', '37.7069']",48.5277,37.7069,"Костянтинівка, Донецька область"
"[None, None]",,,"В.Новосілка (АС), Донецька область"
"[None, None]",,,"Слов'янськ, Донецька область"
"[None, None]",,,"Мирноград (АС Світлий), Донецька область"
"['48.13989', '37.74255']",48.13989,37.74255,"Авдіївка, Донецька область"
"[None, None]",,,"Єнакієве (АС), Донецька область"
"[None, None]",,,"Володарське (ЗА), Донецька область"
"[None, None]",,,"Димитров (ДП Світлий), Донецька область"
"['47.75', '38.5']",47.75,38.5,"Амвросіївка, Донецька область"
"['47.15759', '38.22824']",47.15759,38.22824,"Новоазовськ, Донецька область"
"[None, None]",,,"Клинкине(ЗА), Донецька область"
"[None, None]",,,"Сєдове (АС), Донецька область"
"['47.40994', '38.02476']",47.40994,38.02476,"Тельманове, Донецька область"
"[None, None]",,,"Комсомольське (АС), Донецька область"
"['48.023', '37.80224']",48.023,37.80224,"Донецьк, Донецька область"
"[None, None]",,,"Дебальцеве (АС), Донецька область"
"[None, None]",,,"Світлодарськ (АС), Донецька область"
"[None, None]",,,"Білозерське (АС), Донецька область"
"['48.46147', '37.08524']",48.46147,37.08524,"Добропілля, Донецька область"
"['48.03876', '38.59685']",48.03876,38.59685,"Торез, Донецька область"
"[None, None]",,,"Донецьк (АС Східна), Донецька область"
"[None, None]",,,"Сніжне (АС), Донецька область"
"[None, None]",,,"Кіровське (АС), Донецька область"
"[None, None]",,,"Горлівка (АС), Донецька область"
"[None, None]",,,"Сопіне (ЗА), Донецька область"
"[None, None]",,,"Покровськ, Донецька область"
"[None, None]",,,"Святогірськ, Донецька область"
"[None, None]",,,"Краматорськ (ЗА Зал. вокзал), Донецька область"
"['48.98837', '37.80225']",48.98837,37.80225,"Лиман, Донецька область"
"[None, None]",,,"Лиман (ЗА Базарна), Донецька область"
"[None, None]",,,"Лиман (ЗА Південна сторона), Донецька область"
"[None, None]",,,"Дружківка (ЗА Зал. вокзал), Донецька область"
"[None, None]",,,"Малоянісоль (ЗА), Донецька область"
"[None, None]",,,"Дружківка (ЗА ЦМЛ), Донецька область"
"[None, None]",,,"Дружківка (ЗА Курган Слави), Донецька область"
"[None, None]",,,"Шевченко (ЗА), Донецька область"
"[None, None]",,,"Бойове (ЗА), Донецька область"
"[None, None]",,,"Кременівка (ЗА), Донецька область"
"[None, None]",,,"Нікольске (ЗА), Донецька область"
"[None, None]",,,"Катеринівка (ЗА), Донецька область"
"[None, None]",,,"Македонівка (ЗА), Донецька область"
"[None, None]",,,"Нікольске (ЗА ЦРЛ), Донецька область"
"[None, None]",,,"Костянтинівка (ДС КВПК вул. Ломоносова АС Краматорськ), Донецька область"
"[None, None]",,,"Покровськ (Зал. вокзал ДС КВПК АС м. Покровськ), Донецька область"
"[None, None]",,,"Гродівка (ЗА), Донецька область"
"[None, None]",,,"Мирноград (АС), Донецька область"
"[None, None]",,,"Мирноград (ЗА П. Новатор), Донецька область"
"[None, None]",,,"Новоекономічне (ЗА), Донецька область"
"[None, None]",,,"Новоекономічне (ЗА Проф. ""Синянка""), Донецька область"
"[None, None]",,,"Криворіжжя (ЗА), Донецька область"
"[None, None]",,,"Дружківка (ЗА, Донецька область"
"[None, None]",,,"Новогродівка (ЗА), Донецька область"
"[None, None]",,,"Софіївка (ЗА), Донецька область"
"[None, None]",,,"Опитне (ЗА), Донецька область"
"[None, None]",,,"Гірник (АС), Донецька область"
"[None, None]",,,"Селидове (ЗА вул. Гоголя), Донецька область"
"[None, None]",,,"Миколаївка(ЗА), Донецька область"
"[None, None]",,,"Михайлівка (ЗА), Донецька область"
"[None, None]",,,"Торез (ЗА Зал. вокзал), Донецька область"
"[None, None]",,,"Шахтарськ (АС), Донецька область"
"[None, None]",,,"Харцизьк (АС), Донецька область"
"[None, None]",,,"Іловайськ (АС), Донецька область"
"[None, None]",,,"Ясинувата (ЗА), Донецька область"
"[None, None]",,,"Нижня Кринка (ЗА), Донецька область"
"['48.04782', '37.92576']",48.04782,37.92576,"Макіївка, Донецька область"
"[None, None]",,,"Макіївка (ДС Привокзальна), Донецька область"
"[None, None]",,,"Зуївка (ЗА), Донецька область"
"[None, None]",,,"Макіївка (ДС), Донецька область"
"['49.409', '24.60927']",49.409,24.60927,"Рогатин, Івано-Франківська область"
"['48.65138', '24.0202']",48.65138,24.0202,"Осмолода, Івано-Франківська область"
"['49.01187', '24.37308']",49.01187,24.37308,"Калуш, Івано-Франківська область"
"['48.25868', '25.17946']",48.25868,25.17946,"Кути, Івано-Франківська область"
"['48.28459', '24.56536']",48.28459,24.56536,"Ворохта, Івано-Франківська область"
"['48.53115', '25.03649']",48.53115,25.03649,"Коломия, Івано-Франківська область"
"[None, None]",,,"Раковець, Івано-Франківська область"
"['48.44692', '25.56937']",48.44692,25.56937,"Снятин, Івано-Франківська область"
"['48.52767', '25.57572']",48.52767,25.57572,"Стецева, Івано-Франківська область"
"['48.31071', '25.09575']",48.31071,25.09575,"Косів, Івано-Франківська область"
"['47.94181', '24.69814']",47.94181,24.69814,"Буркут, Івано-Франківська область"
"['48.06238', '24.91382']",48.06238,24.91382,"Голови, Івано-Франківська область"
"['48.83361', '24.5243']",48.83361,24.5243,"Богородчани, Івано-Франківська область"
"['48.6348', '24.56936']",48.6348,24.56936,"Надвірна, Івано-Франківська область"
"[None, None]",,,"Солотвино, Івано-Франківська область"
"['49.06607', '23.86435']",49.06607,23.86435,"Болехів, Івано-Франківська область"
"['48.9733', '24.00944']",48.9733,24.00944,"Долина, Івано-Франківська область"
"['49.25867', '24.62777']",49.25867,24.62777,"Бурштин, Івано-Франківська область"
"['48.90544', '24.00824']",48.90544,24.00824,"Грабів, Івано-Франківська область"
"['48.82309', '24.10976']",48.82309,24.10976,"Лецівка, Івано-Франківська область"
"['48.93576', '24.16379']",48.93576,24.16379,"Рожнятів, Івано-Франківська область"
"['48.90246', '24.30347']",48.90246,24.30347,"Петранка, Івано-Франківська область"
"['48.76259', '24.05741']",48.76259,24.05741,"Липовиця, Івано-Франківська область"
"[None, None]",,,"Гвіздець, Івано-Франківська область"
"[None, None]",,,"Прикмище, Івано-Франківська область"
"[None, None]",,,"Топорівці, Івано-Франківська область"
"[None, None]",,,"Акришора, Івано-Франківська область"
"['48.42232', '24.76818']",48.42232,24.76818,"Баня Березів, Івано-Франківська область"
"[None, None]",,,"Верхній Березів, Івано-Франківська область"
"['48.41067', '24.78388']",48.41067,24.78388,"Вижній Березів, Івано-Франківська область"
"['48.32991', '24.82052']",48.32991,24.82052,"Космач, Івано-Франківська область"
"['48.43528', '24.74725']",48.43528,24.74725,"Лючки, Івано-Франківська область"
"[None, None]",,,"Микитинці, Івано-Франківська область"
"['48.3276', '24.90059']",48.3276,24.90059,"Прокурава, Івано-Франківська область"
"['48.38907', '24.80359']",48.38907,24.80359,"Текуча, Івано-Франківська область"
"[None, None]",,,"Цуцулин, Івано-Франківська область"
"['48.38639', '25.14803']",48.38639,25.14803,"Хімчин, Івано-Франківська область"
"['48.26473', '24.86086']",48.26473,24.86086,"Шепіт, Івано-Франківська область"
"[None, None]",,,"Балинці, Івано-Франківська область"
"[None, None]",,,"Хом’яківка, Івано-Франківська область"
"['48.70947', '25.09944']",48.70947,25.09944,"Жуків, Івано-Франківська область"
"['48.45157', '24.55436']",48.45157,24.55436,"Яремче, Івано-Франківська область"
"[None, None]",,,"Білоберезка, Івано-Франківська область"
"['48.52354', '24.62466']",48.52354,24.62466,"Делятин, Івано-Франківська область"
"['46.84152', '33.42838']",46.84152,33.42838,"Берислав, Херсонська область"
"['46.86766', '33.58391']",46.86766,33.58391,"Зміївка, Херсонська область"
"['47.00924', '33.48569']",47.00924,33.48569,"Новорайськ, Херсонська область"
"[None, None]",,,"Херсон АВ, Херсонська область"
"['46.75451', '33.34864']",46.75451,33.34864,"Нова Каховка, Херсонська область"
"['46.37881', '33.92216']",46.37881,33.92216,"Веселе, Херсонська область"
"['46.70372', '32.9776']",46.70372,32.9776,"Козачі Лагері, Херсонська область"
"['47.00545', '33.65232']",47.00545,33.65232,"Республіканець, Херсонська область"
"['47', '34.55']",47,34.55,"Богданівка, Херсонська область"
"['47.12112', '33.7712']",47.12112,33.7712,"Саблуківка, Херсонська область"
"['46.88932', '32.84783']",46.88932,32.84783,"Кірове, Херсонська область"
"['47.09667', '33.74713']",47.09667,33.74713,"Качкарівка, Херсонська область"
"['46.65581', '32.6178']",46.65581,32.6178,"Херсон, Херсонська область"
"[None, None]",,,"Високопілля АС, Херсонська область"
"['47.25053', '34.33797']",47.25053,34.33797,"Верхній Рогачик, Херсонська область"
"['47.41669', '34.13444']",47.41669,34.13444,"Ушкалка, Херсонська область"
"['47.34628', '34.03276']",47.34628,34.03276,"Нижній Рогачик, Херсонська область"
"[None, None]",,,"Велика Олександрівна, Херсонська область"
"['47.31969', '33.30373']",47.31969,33.30373,"Велика Олександрівка, Херсонська область"
"['47.17944', '33.41905']",47.17944,33.41905,"Борозенське, Херсонська область"
"['47.23654', '34.00012']",47.23654,34.00012,"Мала Лепетиха, Херсонська область"
"['46.99639', '34.1676']",46.99639,34.1676,"Рубанівка, Херсонська область"
"[None, None]",,,"Горностаївка АС, Херсонська область"
"['46.13088', '32.7691']",46.13088,32.7691,"Красне, Херсонська область"
"['46.79051', '33.75455']",46.79051,33.75455,"Старолук'янівка, Херсонська область"
"['47.01859', '33.99398']",47.01859,33.99398,"Лопатки, Херсонська область"
"['46.84768', '34.16978']",46.84768,34.16978,"Нова Благовіщенка, Херсонська область"
"['46.80757', '34.01587']",46.80757,34.01587,"Новоєлизаветівка, Херсонська область"
"['47', '34.03333']",47,34.03333,"Червоноблагодатне, Херсонська область"
"['46.9', '34.13333']",46.9,34.13333,"Славне, Херсонська область"
"['47.05094', '33.8047']",47.05094,33.8047,"Заводівка, Херсонська область"
"['45.89886', '34.8781']",45.89886,34.8781,"Стрілкове, Херсонська область"
"['45.96915', '34.49029']",45.96915,34.49029,"Сиваш, Херсонська область"
"['46.17592', '34.8034']",46.17592,34.8034,"Генічеськ, Херсонська область"
"['46.38736', '34.57122']",46.38736,34.57122,"Сиваське, Херсонська область"
"[None, None]",,,"Дачі Сади (Кринки), Херсонська область"
"[None, None]",,,"Цюрупинськ (річпорт), Херсонська область"
"[None, None]",,,"Олешки АС, Херсонська область"
"['46.66044', '32.89389']",46.66044,32.89389,"Підстепне, Херсонська область"
"[None, None]",,,"Хуторище, Херсонська область"
"[None, None]",,,"Ліві Солонці, Херсонська область"
"['46.59996', '33.22707']",46.59996,33.22707,"Нова Маячка, Херсонська область"
"['46.43529', '32.71793']",46.43529,32.71793,"Малі Копані, Херсонська область"
"['46.84842', '34.38044']",46.84842,34.38044,"Нижні Сірогози, Херсонська область"
"['46.72919', '34.35949']",46.72919,34.35949,"Трохимівка, Херсонська область"
"['46.72082', '34.55298']",46.72082,34.55298,"Іванівка, Херсонська область"
"['46.41733', '33.40471']",46.41733,33.40471,"Балтазарівка, Херсонська область"
"[None, None]",,,"Чаплинка АС, Херсонська область"
"[None, None]",,,"Долинська, Херсонська область"
"['46.46042', '33.92099']",46.46042,33.92099,"Асканія Нова, Херсонська область"
"['46.42707', '33.33026']",46.42707,33.33026,"Скадовка, Херсонська область"
"['46.52087', '34.05326']",46.52087,34.05326,"Маркеєв, Херсонська область"
"['46.48756', '33.90057']",46.48756,33.90057,"Питомник, Херсонська область"
"[None, None]",,,"Нововоронцовка АС, Херсонська область"
"['47.33092', '33.60165']",47.33092,33.60165,"Нововоскресенське, Херсонська область"
"['47.41508', '34.23437']",47.41508,34.23437,"Михайлівка, Херсонська область"
"['47.41667', '33.65']",47.41667,33.65,"Миролюбівка, Херсонська область"
"['46.25623', '33.2907']",46.25623,33.2907,"Каланчак, Херсонська область"
"[None, None]",,,"Хорли ч/з Каланчак, Херсонська область"
"['47.31969', '33.30373']",47.31969,33.30373,"Олександрівка, Херсонська область"
"[None, None]",,,"Каланчак АС, Херсонська область"
"[None, None]",,,"Каланчак (КПВВ), Херсонська область"
"[None, None]",,,"Новотроїцька, Херсонська область"
"[None, None]",,,"Чкалове АС, Херсонська область"
"['46.39021', '33.99621']",46.39021,33.99621,"Ясна Поляна, Херсонська область"
"['47.00777', '33.72899']",47.00777,33.72899,"Горностаївка, Херсонська область"
"[None, None]",,,"Жданове, Херсонська область"
"['46.33383', '34.75314']",46.33383,34.75314,"Партизани, Херсонська область"
"[None, None]",,,"Херсон (з/в), Херсонська область"
"['46.75451', '33.34864']",46.75451,33.34864,"Каховка, Херсонська область"
"['46.20088', '32.85423']",46.20088,32.85423,"Шевченка, Херсонська область"
"[None, None]",,,"Козацьке (Нібулон), Херсонська область"
"['46.65222', '33.35904']",46.65222,33.35904,"Чорнянка, Херсонська область"
"['46.57143', '33.91269']",46.57143,33.91269,"Мар'янівка, Херсонська область"
"['46.1161', '32.91124']",46.1161,32.91124,"Скадовськ, Херсонська область"
"['46.67885', '32.73274']",46.67885,32.73274,"Антонівка, Херсонська область"
"['46.084', '32.52955']",46.084,32.52955,"Лазурне, Херсонська область"
"['46.05536', '33.39764']",46.05536,33.39764,"Приморське, Херсонська область"
"[None, None]",,,"Скадовськ АС ПП ""Корсар"", Херсонська область"
"['46.28603', '32.14111']",46.28603,32.14111,"Лиманівка, Херсонська область"
"[None, None]",,,"Геройське, Херсонська область"
"['46.11667', '32.28333']",46.11667,32.28333,"Залізний Порт, Херсонська область"
"['46.10204', '32.41245']",46.10204,32.41245,"Більшовик, Херсонська область"
"[None, None]",,,"Гола Пристань АС, Херсонська область"
"[None, None]",,,"с. Більшовик, Херсонська область"
"[None, None]",,,"Приморське (с. Більшовик), Херсонська область"
"['46.34569', '32.00828']",46.34569,32.00828,"Очаківське, Херсонська область"
"['46.47128', '32.42021']",46.47128,32.42021,"Стара Збур'ївка, Херсонська область"
"['46.35763', '32.3514']",46.35763,32.3514,"Чулаківка, Херсонська область"
"[None, None]",,,"Краснознам'янка, Херсонська область"
"['46.52719', '32.52417']",46.52719,32.52417,"Гола Пристань, Херсонська область"
"['46.49287', '34.67575']",46.49287,34.67575,"Петрівка, Херсонська область"
"[None, None]",,,"с. Кардашинка (Дачі), Херсонська область"
"['46.5071', '32.65902']",46.5071,32.65902,"Велика Кардашинка, Херсонська область"
"['46.70586', '32.81684']",46.70586,32.81684,"Садове, Херсонська область"
"['46.4982', '33.09956']",46.4982,33.09956,"Калинівка, Херсонська область"
"['46.21582', '32.53155']",46.21582,32.53155,"Київка, Херсонська область"
"['46.98333', '33.08333']",46.98333,33.08333,"Таврійське, Херсонська область"
"['46.47506', '32.23584']",46.47506,32.23584,"Рибальче, Херсонська область"
"[None, None]",,,"Новочерномор'я, Херсонська область"
"['46.37107', '33.43206']",46.37107,33.43206,"Жовтневе, Херсонська область"
"['46.40239', '32.79922']",46.40239,32.79922,"Буркути, Херсонська область"
"[None, None]",,,"Іванівка КДЗ, Херсонська область"
"[None, None]",,,"Іванівка Дачі, Херсонська область"
"['46.61501', '34.28581']",46.61501,34.28581,"Федорівка, Херсонська область"
"['46.6758', '32.5064']",46.6758,32.5064,"Аєропорт, Херсонська область"
"[None, None]",,,"Якимівка, Кіровоградська область"
"['48.32164', '32.12056']",48.32164,32.12056,"Червоновершка, Кіровоградська область"
"['48.9534', '32.50315']",48.9534,32.50315,"Цвітне, Кіровоградська область"
"[None, None]",,,"Федіївка, Кіровоградська область"
"['47.95507', '32.53674']",47.95507,32.53674,"Устинівка, Кіровоградська область"
"['48.87956', '31.64012']",48.87956,31.64012,"Турія, Кіровоградська область"
"[None, None]",,,"Спасове, Кіровоградська область"
"['49.04894', '33.24106']",49.04894,33.24106,"Світловодськ, Кіровоградська область"
"[None, None]",,,"Сасівка, Кіровоградська область"
"['48.77667', '31.49192']",48.77667,31.49192,"Рубаний Міст, Кіровоградська область"
"[None, None]",,,"Родниківка, Кіровоградська область"
"[None, None]",,,"Попельнясте, Кіровоградська область"
"['48.24222', '31.41583']",48.24222,31.41583,"Помічна, Кіровоградська область"
"[None, None]",,,"Побузьке, Кіровоградська область"
"['48.58069', '30.6759']",48.58069,30.6759,"Підвисоке, Кіровоградська область"
"[None, None]",,,"Петроострів, Кіровоградська область"
"['48.32467', '33.25617']",48.32467,33.25617,"Петрове, Кіровоградська область"
"['48.53552', '30.51923']",48.53552,30.51923,"Перегонівка, Кіровоградська область"
"[None, None]",,,"Первомайське, Кіровоградська область"
"[None, None]",,,"Пенькіне, Кіровоградська область"
"[None, None]",,,"Паліївка, Кіровоградська область"
"[None, None]",,,"Павлогірківка, Кіровоградська область"
"[None, None]",,,"Острівка, Кіровоградська область"
"['48.67994', '32.19197']",48.67994,32.19197,"Оситняжка, Кіровоградська область"
"[None, None]",,,"Оситна, Кіровоградська область"
"['48.90716', '33.44869']",48.90716,33.44869,"Онуфріївка, Кіровоградська область"
"['48.66961', '33.11593']",48.66961,33.11593,"Олександрія, Кіровоградська область"
"['48.96336', '32.23492']",48.96336,32.23492,"Олександрівка, Кіровоградська область"
"['48.32635', '31.52852']",48.32635,31.52852,"Новоукраїнка, Кіровоградська область"
"['48.78105', '31.64204']",48.78105,31.64204,"Новомиргород, Кіровоградська область"
"[None, None]",,,"Новоградівка, Кіровоградська область"
"['48.65803', '30.81821']",48.65803,30.81821,"Новоархангельськ, Кіровоградська область"
"['48.50278', '32.71354']",48.50278,32.71354,"Митрофанівка, Кіровоградська область"
"['48.96926', '33.04251']",48.96926,33.04251,"Микільське, Кіровоградська область"
"['48.48427', '33.1037']",48.48427,33.1037,"Мар'янівка, Кіровоградська область"
"[None, None]",,,"Мануйлівка, Кіровоградська область"
"['48.0571', '33.28581']",48.0571,33.28581,"Лозуватка, Кіровоградська область"
"['48.8454', '31.63239']",48.8454,31.63239,"Листопадове, Кіровоградська область"
"['48.5132', '32.2597']",48.5132,32.2597,"Кропивницький, Кіровоградська область"
"['48.89539', '32.44474']",48.89539,32.44474,"Красносілля, Кіровоградська область"
"[None, None]",,,"Краснопілка, Кіровоградська область"
"[None, None]",,,"Кохане, Кіровоградська область"
"[None, None]",,,"Копанки, Кіровоградська область"
"[None, None]",,,"Кетрисанівка, Кіровоградська область"
"[None, None]",,,"Квітка, Кіровоградська область"
"['48.91719', '31.71671']",48.91719,31.71671,"Капітанівка, Кіровоградська область"
"['48.65093', '33.44317']",48.65093,33.44317,"Кам'янка, Кіровоградська область"
"['48.66435', '32.41641']",48.66435,32.41641,"Казарня, Кіровоградська область"
"['49.05466', '32.34509']",49.05466,32.34509,"Іванівка, Кіровоградська область"
"['48.71278', '32.66472']",48.71278,32.66472,"Знам'янка, Кіровоградська область"
"['48.48521', '31.53906']",48.48521,31.53906,"Злинка, Кіровоградська область"
"['48.12815', '32.23801']",48.12815,32.23801,"Златопілля (Свердлове), Кіровоградська область"
"['48.21354', '30.01558']",48.21354,30.01558,"Завалля, Кіровоградська область"
"[None, None]",,,"Долинська, Кіровоградська область"
"[None, None]",,,"Докучаєве, Кіровоградська область"
"[None, None]",,,"Губівка, Кіровоградська область"
"[None, None]",,,"Глодоси, Кіровоградська область"
"['48.33958', '29.86791']",48.33958,29.86791,"Гайворон, Кіровоградська область"
"['48.74555', '32.56903']",48.74555,32.56903,"Водяне, Кіровоградська область"
"[None, None]",,,"Вищі Верещки, Кіровоградська область"
"[None, None]",,,"Вись, Кіровоградська область"
"[None, None]",,,"Буховецьке, Кіровоградська область"
"['48.05896', '32.16641']",48.05896,32.16641,"Бобринець, Кіровоградська область"
"['48.84878', '32.33572']",48.84878,32.33572,"Біляївка, Кіровоградська область"
"[None, None]",,,"Білозерне, Кіровоградська область"
"['48.74994', '33.0987']",48.74994,33.0987,"Березівка, Кіровоградська область"
"['48.35459', '31.48046']",48.35459,31.48046,"Адабаш, Кіровоградська область"
"[None, None]",,,"с. Вись, Кіровоградська область"
"['49.0495', '38.21792']",49.0495,38.21792,"Кремінна, Луганська область"
"[None, None]",,,"Кудряшівка, Луганська область"
"['48.71526', '39.50549']",48.71526,39.50549,"Пшеничне, Луганська область"
"[None, None]",,,"Лисичанськ АС, Луганська область"
"['48.79487', '39.35065']",48.79487,39.35065,"Нижньотепле, Луганська область"
"[None, None]",,,"Щастя АС, Луганська область"
"['48.94832', '38.49166']",48.94832,38.49166,"Сєвєродонецьк, Луганська область"
"['48.65433', '39.47943']",48.65433,39.47943,"Станиця Луганська, Луганська область"
"['48.88184', '39.47454']",48.88184,39.47454,"Верхній Мінченок, Луганська область"
"[None, None]",,,"Білокуракине АС, Луганська область"
"['49.27832', '38.91069']",49.27832,38.91069,"Старобільськ, Луганська область"
"['49.41029', '38.15035']",49.41029,38.15035,"Сватове, Луганська область"
"[None, None]",,,"Рубіжне АС, Луганська область"
"['48.72184', '39.18389']",48.72184,39.18389,"Старий Айдар, Луганська область"
"['49.32708', '39.39744']",49.32708,39.39744,"Брусівка, Луганська область"
"['48.63328', '38.37804']",48.63328,38.37804,"Попасна, Луганська область"
"[None, None]",,,"Мілове АС, Луганська область"
"['49.08651', '39.82526']",49.08651,39.82526,"Нижньобараниківка, Луганська область"
"[None, None]",,,"Марківка АС, Луганська область"
"['48.79489', '39.10745']",48.79489,39.10745,"Райгородка, Луганська область"
"['46.96591', '31.9974']",46.96591,31.9974,"Миколаїв, Миколаївська область"
"[None, None]",,,"Миколаїв (ТЦ Фуршет), Миколаївська область"
"[None, None]",,,"Миколаїв (залізничний вокзал), Миколаївська область"
"['47.30778', '31.78506']",47.30778,31.78506,"Нова Одеса, Миколаївська область"
"[None, None]",,,"Гур’ївка, Миколаївська область"
"[None, None]",,,"Себіне (дачі), Миколаївська область"
"[None, None]",,,"Новопетрівське, Миколаївська область"
"[None, None]",,,"Кимівка, Миколаївська область"
"[None, None]",,,"Кудрявцівка, Миколаївська область"
"['47.35666', '31.23488']",47.35666,31.23488,"Веселинове, Миколаївська область"
"['47.81777', '31.18263']",47.81777,31.18263,"Южноукраїнськ, Миколаївська область"
"['47.56494', '31.33078']",47.56494,31.33078,"Вознесенськ, Миколаївська область"
"['48.04433', '30.85073']",48.04433,30.85073,"Первомайськ, Миколаївська область"
"[None, None]",,,"Яструбинове, Миколаївська область"
"['46.61283', '31.54982']",46.61283,31.54982,"Очаків, Миколаївська область"
"[None, None]",,,"Великосербулівка, Миколаївська область"
"[None, None]",,,"Новошмидтівка, Миколаївська область"
"['47.69308', '32.5216']",47.69308,32.5216,"Новий Буг, Миколаївська область"
"[None, None]",,,"Миколаїв (з/в), Миколаївська область"
"[None, None]",,,"Явкине, Миколаївська область"
"[None, None]",,,"Новокиївка, Миколаївська область"
"['47.30783', '32.84993']",47.30783,32.84993,"Березнегувате, Миколаївська область"
"['45.8', '29.43333']",45.8,29.43333,"Надеждівка, Одеська область"
"[None, None]",,,"Кам'янське, Одеська область"
"['46.4845', '29.04498']",46.4845,29.04498,"Височанське, Одеська область"
"['45.7593', '29.22587']",45.7593,29.22587,"Холмське, Одеська область"
"['45.91529', '29.08138']",45.91529,29.08138,"Нова Іванівка, Одеська область"
"['45.99194', '29.41824']",45.99194,29.41824,"Арциз, Одеська область"
"['45.79408', '28.74367']",45.79408,28.74367,"Кубей, Одеська область"
"[None, None]",,,"Подільськ АС, Одеська область"
"['46.47747', '30.73262']",46.47747,30.73262,"Одеса, Одеська область"
"['46.67733', '30.26819']",46.67733,30.26819,"Михайлівка, Одеська область"
"[None, None]",,,"Михайлопіль, Одеська область"
"['45.91529', '29.08138']",45.91529,29.08138,"Іванівка, Одеська область"
"[None, None]",,,"Благоєво, Одеська область"
"['45.61403', '28.62783']",45.61403,28.62783,"Тополине, Одеська область"
"[None, None]",,,"Топали, Одеська область"
"[None, None]",,,"Великий Дальник (перший квартал), Одеська область"
"[None, None]",,,"Великий Дальник (четвертий квартал), Одеська область"
"[None, None]",,,"Великий Дальник (третій квартал), Одеська область"
"['47.75305', '29.53205']",47.75305,29.53205,"Подільськ, Одеська область"
"['46.42367', '30.61619']",46.42367,30.61619,"Прилиманське, Одеська область"
"['45.985', '29.04815']",45.985,29.04815,"Вільне, Одеська область"
"['46.7201', '30.40587']",46.7201,30.40587,"Єгорівка, Одеська область"
"[None, None]",,,"с. Дачне, Одеська область"
"[None, None]",,,"ст. Усатове, Одеська область"
"[None, None]",,,"Полянецьке, Одеська область"
"['46.62211', '31.10131']",46.62211,31.10131,"Южне, Одеська область"
"[None, None]",,,"р/г Гвардійське, Одеська область"
"[None, None]",,,"Лисенково, Одеська область"
"['45.81031', '28.99073']",45.81031,28.99073,"Виноградне, Одеська область"
"['47.63188', '30.72856']",47.63188,30.72856,"Ставкове, Одеська область"
"[None, None]",,,"Кам`яньске, Одеська область"
"['46.60487', '30.58554']",46.60487,30.58554,"Холодна балка, Одеська область"
"[None, None]",,,"Градениці АС, Одеська область"
"['47.93548', '29.61982']",47.93548,29.61982,"Балта, Одеська область"
"['46.40029', '30.58913']",46.40029,30.58913,"Нова Долина, Одеська область"
"['45.40011', '28.58097']",45.40011,28.58097,"Плавні, Одеська область"
"['46.84334', '30.07919']",46.84334,30.07919,"Роздільна, Одеська область"
"[None, None]",,,"Новогеоргіївка, Одеська область"
"['46.44778', '28.97306']",46.44778,28.97306,"Петрівськ, Одеська область"
"['46.30094', '29.01958']",46.30094,29.01958,"Серпневе, Одеська область"
"[None, None]",,,"Кудрявка, Одеська область"
"['45.56253', '28.60461']",45.56253,28.60461,"Владичень, Одеська область"
"[None, None]",,,"Одеса АС ""Одеса ЖДВ"", Одеська область"
"['48.09875', '29.12463']",48.09875,29.12463,"Кодима, Одеська область"
"['45.89167', '28.94944']",45.89167,28.94944,"Олександрівка, Одеська область"
"['47.99646', '30.18571']",47.99646,30.18571,"Кричунове, Одеська область"
"['46.30495', '30.65478']",46.30495,30.65478,"Чорноморськ, Одеська область"
"['45.68119', '28.57138']",45.68119,28.57138,"Виноградівка, Одеська область"
"['45.45727', '28.29317']",45.45727,28.29317,"Рені, Одеська область"
"[None, None]",,,"Привольне, Одеська область"
"['45.68262', '28.61487']",45.68262,28.61487,"Болград, Одеська область"
"['45.54136', '28.669']",45.54136,28.669,"Криничне, Одеська область"
"['46.77002', '30.09889']",46.77002,30.09889,"Антонівка, Одеська область"
"['47.26449', '30.6742']",47.26449,30.6742,"Демидове, Одеська область"
"['47.54044', '29.46001']",47.54044,29.46001,"Окни, Одеська область"
"[None, None]",,,"Окни АС, Одеська область"
"[None, None]",,,"Одеса АС ""АВ Одеса"", Одеська область"
"['46.15631', '29.08628']",46.15631,29.08628,"Малоярославець, Одеська область"
"['45.83731', '29.61424']",45.83731,29.61424,"Татарбунари, Одеська область"
"['45.52128', '29.60471']",45.52128,29.60471,"Приморське, Одеська область"
"[None, None]",,,"Вилкове АС, Одеська область"
"['45.72118', '29.44045']",45.72118,29.44045,"Струмок, Одеська область"
"['45.97167', '28.98639']",45.97167,28.98639,"Дмитрівка, Одеська область"
"['48.13219', '30.08247']",48.13219,30.08247,"Саврань, Одеська область"
"[None, None]",,,"Ульянівка, Одеська область"
"['45.63927', '29.0791']",45.63927,29.0791,"Покровка, Одеська область"
"[None, None]",,,"Левадівка, Одеська область"
"[None, None]",,,"Миколаївка АС ""Миколаївка"", Одеська область"
"[None, None]",,,"Дубове, Одеська область"
"[None, None]",,,"вул. Паустовського, Одеська область"
"['46.57171', '30.69833']",46.57171,30.69833,"Набережне, Одеська область"
"[None, None]",,,"Доброслав АС, Одеська область"
"['45.45518', '29.26367']",45.45518,29.26367,"Кілія, Одеська область"
"['47.24269', '30.32969']",47.24269,30.32969,"Петровірівка, Одеська область"
"[None, None]",,,"м. Одеса (пл. Соборна), Одеська область"
"[None, None]",,,"Молода гвардія м. Одеса, Одеська область"
"[None, None]",,,"м. Одеса (вул. Марсельська), Одеська область"
"[None, None]",,,"с.Корсунці, Одеська область"
"[None, None]",,,"Городня, Одеська область"
"[None, None]",,,"Великоплоське, Одеська область"
"['46.16315', '29.64353']",46.16315,29.64353,"Мирнопілля, Одеська область"
"['45.91405', '29.19083']",45.91405,29.19083,"Делень, Одеська область"
"[None, None]",,,"Старокозаче АС, Одеська область"
"[None, None]",,,"В.Дальник, Одеська область"
"[None, None]",,,"Сухий Овраг, Одеська область"
"['46.18509', '29.86985']",46.18509,29.86985,"Успенівка, Одеська область"
"['47.99016', '28.92499']",47.99016,28.92499,"Олексіївка, Одеська область"
"['47.72008', '29.96635']",47.72008,29.96635,"Ананьїв, Одеська область"
"['45.7489', '28.61466']",45.7489,28.61466,"Залізничне, Одеська область"
"['46.50585', '30.32521']",46.50585,30.32521,"Теплодар, Одеська область"
"[None, None]",,,"Ізмаїл АС, Одеська область"
"['46.60071', '30.19587']",46.60071,30.19587,"Кагарлик, Одеська область"
"[None, None]",,,"Піщана, Одеська область"
"['45.86814', '29.92863']",45.86814,29.92863,"Жовтий Яр, Одеська область"
"['45.94358', '29.96472']",45.94358,29.96472,"Дивізія, Одеська область"
"['46.3025', '29.24167']",46.3025,29.24167,"Бородіно, Одеська область"
"[None, None]",,,"Веселий Кут (Арцизський район), Одеська область"
"['45.52359', '29.16462']",45.52359,29.16462,"Василівка, Одеська область"
"['46.56448', '30.60652']",46.56448,30.60652,"Велика Балка, Одеська область"
"['46.88869', '30.50561']",46.88869,30.50561,"Адамівка, Одеська область"
"['46.64004', '30.62125']",46.64004,30.62125,"Черевичне, Одеська область"
"['46.75934', '30.52907']",46.75934,30.52907,"Маринівка, Одеська область"
"['47.00726', '30.76435']",47.00726,30.76435,"Сербка, Одеська область"
"[None, None]",,,"Ониськове, Одеська область"
"['45.3388', '28.92758']",45.3388,28.92758,"Стара Некрасівка, Одеська область"
"['47.16057', '29.58226']",47.16057,29.58226,"Комарівка, Одеська область"
"[None, None]",,,"Цебрикове АС, Одеська область"
"['47.68331', '29.73148']",47.68331,29.73148,"Вишневе, Одеська область"
"[None, None]",,,"Росіянівка, Одеська область"
"['46.48399', '30.59341']",46.48399,30.59341,"Хлібодарське, Одеська область"
"[None, None]",,,"Чистоводне, Одеська область"
"[None, None]",,,"Курортне АС ""Курортне"", Одеська область"
"['46.07251', '30.46538']",46.07251,30.46538,"Затока, Одеська область"
"['46.0272', '30.37682']",46.0272,30.37682,"Сергіївка, Одеська область"
"[None, None]",,,"Савіньон, Одеська область"
"['47.12956', '31.21818']",47.12956,31.21818,"Основа, Одеська область"
"['47.08661', '29.64754']",47.08661,29.64754,"Великокомарівка, Одеська область"
"['47.07971', '29.85753']",47.07971,29.85753,"Велика Михайлівка, Одеська область"
"[None, None]",,,"Велика Михайлівка АС, Одеська область"
"['46.055', '29.28889']",46.055,29.28889,"Веселий Кут, Одеська область"
"['45.40214', '29.58595']",45.40214,29.58595,"Вилкове, Одеська область"
"['45.58214', '28.98509']",45.58214,28.98509,"Суворове, Одеська область"
"['45.50661', '28.5747']",45.50661,28.5747,"Котловина, Одеська область"
"['46.20126', '29.61871']",46.20126,29.61871,"Пасічне, Одеська область"
"['45.8068', '29.87635']",45.8068,29.87635,"Кочкувате, Одеська область"
"['46.04035', '30.05854']",46.04035,30.05854,"Мар'янівка, Одеська область"
"[None, None]",,,"Долинська, Одеська область"
"[None, None]",,,"Ширяєве АС, Одеська область"
"['47.33351', '29.87327']",47.33351,29.87327,"Затишшя, Одеська область"
"[None, None]",,,"Затишшя АС, Одеська область"
"['46.43457', '30.40482']",46.43457,30.40482,"Петродолинське, Одеська область"
"['46.34239', '30.57859']",46.34239,30.57859,"Великодолинське, Одеська область"
"['46.24998', '30.44127']",46.24998,30.44127,"Овідіополь, Одеська область"
"[None, None]",,,"Конопляне, Одеська область"
"['47.92518', '29.93716']",47.92518,29.93716,"Познанка, Одеська область"
"['46.7953', '29.97357']",46.7953,29.97357,"Новокрасне, Одеська область"
"['46.58442', '30.54823']",46.58442,30.54823,"Дачне, Одеська область"
"['47.3767', '30.57526']",47.3767,30.57526,"Стрюкове, Одеська область"
"['47.98736', '29.37956']",47.98736,29.37956,"Обжиле, Одеська область"
"['45.73746', '28.81441']",45.73746,28.81441,"Калчева, Одеська область"
"['47.47307', '29.35935']",47.47307,29.35935,"Артирівка, Одеська область"
"[None, None]",,,"Захарівка АС, Одеська область"
"['47.9508', '29.50559']",47.9508,29.50559,"Оленівка, Одеська область"
"[None, None]",,,"Рассейка, Одеська область"
"['46.34881', '30.0452']",46.34881,30.0452,"Козацьке, Одеська область"
"['46.69374', '30.50223']",46.69374,30.50223,"Єлизаветівка, Одеська область"
"[None, None]",,,"с. Порт, Одеська область"
"[None, None]",,,"с.Бурдівка, Одеська область"
"['46.22169', '30.27781']",46.22169,30.27781,"Сухолужжя, Одеська область"
"[None, None]",,,"р/г Гвардійський, Одеська область"
"['45.34929', '28.84079']",45.34929,28.84079,"Ізмаїл, Одеська область"
"['45.84548', '29.19976']",45.84548,29.19976,"Главани, Одеська область"
"['46.49154', '30.57195']",46.49154,30.57195,"Радісне, Одеська область"
"[None, None]",,,"ж/к ""Сьоме небо"", Одеська область"
"[None, None]",,,"с. Лиманське, Одеська область"
"['47.41528', '29.54145']",47.41528,29.54145,"Новосеменівка, Одеська область"
"['45.58443', '29.21082']",45.58443,29.21082,"Червоний Яр, Одеська область"
"['45.94275', '28.85628']",45.94275,28.85628,"Нові Трояни, Одеська область"
"['46.1006', '29.72169']",46.1006,29.72169,"Плахтіївка, Одеська область"
"['46.59957', '29.99653']",46.59957,29.99653,"Градениці, Одеська область"
"['45.66424', '29.51795']",45.66424,29.51795,"Нерушай, Одеська область"
"['46.8128', '30.93934']",46.8128,30.93934,"Доброслав, Одеська область"
"['47.63773', '29.92538']",47.63773,29.92538,"Новоселівка, Одеська область"
"['46.37755', '29.10606']",46.37755,29.10606,"Надрічне, Одеська область"
"[None, None]",,,"Овідіопольський район Таїровська селищна рада ж/м Радужний, Одеська область"
"[None, None]",,,"Одеса АС « Південна», Одеська область"
"[None, None]",,,"Одеса АС «АВ Одеса», Одеська область"
"[None, None]",,,"Одеса АС «АВ Привоз», Одеська область"
"['48.09025', '29.43957']",48.09025,29.43957,"Саражинка, Одеська область"
"[None, None]",,,"Причепівка, Одеська область"
"[None, None]",,,"смт Авангард ЖМ  Небо"", Одеська область"
"['49.59373', '34.54073']",49.59373,34.54073,"Полтава, Полтавська область"
"['49.44308', '34.86688']",49.44308,34.86688,"Машівка, Полтавська область"
"[None, None]",,,"Первозванівка, Полтавська область"
"['49.96854', '33.60886']",49.96854,33.60886,"Миргород, Полтавська область"
"['50.01625', '32.99694']",50.01625,32.99694,"Лубни, Полтавська область"
"['50.37112', '33.99099']",50.37112,33.99099,"Гадяч, Полтавська область"
"['50.24242', '32.50621']",50.24242,32.50621,"Пирятин, Полтавська область"
"['49.06802', '33.42041']",49.06802,33.42041,"Кременчук, Полтавська область"
"['49.42205', '33.9507']",49.42205,33.9507,"Дружба, Полтавська область"
"['49.56501', '34.07815']",49.56501,34.07815,"Решетилівка, Полтавська область"
"['49.61675', '33.87476']",49.61675,33.87476,"Мушти, Полтавська область"
"['49.48824', '33.83072']",49.48824,33.83072,"Сухорабівка, Полтавська область"
"['49.78367', '33.27833']",49.78367,33.27833,"Хорол, Полтавська область"
"['49.94986', '33.28063']",49.94986,33.28063,"Новооріхівка, Полтавська область"
"['49.75791', '33.58466']",49.75791,33.58466,"Скибівщина, Полтавська область"
"['49.55819', '34.44516']",49.55819,34.44516,"Мильці, Полтавська область"
"[None, None]",,,"хутір Буцківка, Полтавська область"
"['49.7901', '32.69941']",49.7901,32.69941,"Оржиця, Полтавська область"
"['49.91481', '34.01272']",49.91481,34.01272,"Перевіз, Полтавська область"
"['50.36776', '33.26024']",50.36776,33.26024,"Лохвиця, Полтавська область"
"['49.53656', '33.59608']",49.53656,33.59608,"Романівка, Полтавська область"
"['50.20806', '34.36376']",50.20806,34.36376,"Зіньків, Полтавська область"
"['49.63979', '33.80877']",49.63979,33.80877,"Бірки, Полтавська область"
"['48.89004', '34.06931']",48.89004,34.06931,"Світлогірське, Полтавська область"
"['49.14892', '34.19653']",49.14892,34.19653,"Кобеляки, Полтавська область"
"['49.99062', '33.67354']",49.99062,33.67354,"Білики, Полтавська область"
"['50.06864', '34.75862']",50.06864,34.75862,"Котельва, Полтавська область"
"['50.0938', '34.63502']",50.0938,34.63502,"Більськ, Полтавська область"
"['49.22677', '33.75921']",49.22677,33.75921,"Василівка, Полтавська область"
"['49.4351', '33.96652']",49.4351,33.96652,"Лашки, Полтавська область"
"['49.16735', '33.30995']",49.16735,33.30995,"Ялинці, Полтавська область"
"['50.33036', '34.27309']",50.33036,34.27309,"Високе, Полтавська область"
"[None, None]",,,"Лубни(мясокомбінат), Полтавська область"
"['49.60321', '32.86761']",49.60321,32.86761,"Оболонь, Полтавська область"
"['49.01018', '33.63567']",49.01018,33.63567,"Комсомольськ, Полтавська область"
"['48.98653', '33.59653']",48.98653,33.59653,"Чикалівка, Полтавська область"
"['49.88175', '34.01118']",49.88175,34.01118,"Шишаки, Полтавська область"
"['49.83733', '33.90935']",49.83733,33.90935,"Яреськи, Полтавська область"
"['49.06876', '33.79889']",49.06876,33.79889,"Кобелячок, Полтавська область"
"[None, None]",,,"Н.Санжари, Полтавська область"
"['48.77791', '34.28628']",48.77791,34.28628,"Радянське, Полтавська область"
"['49.01018', '33.63567']",49.01018,33.63567,"Горішні Плавні, Полтавська область"
"['49.45723', '35.12975']",49.45723,35.12975,"Карлівка, Полтавська область"
"['49.71043', '35.16571']",49.71043,35.16571,"Чутове, Полтавська область"
"[None, None]",,,"Артемівка, Полтавська область"
"['49.32124', '34.40056']",49.32124,34.40056,"Руденківка, Полтавська область"
"[None, None]",,,"Кременчук (ЦРЛ), Полтавська область"
"['50.06523', '33.45878']",50.06523,33.45878,"Стовбине, Полтавська область"
"['49.59031', '33.18049']",49.59031,33.18049,"Семенівка, Полтавська область"
"[None, None]",,,"Горбанівка (племоб'єднання), Полтавська область"
"[None, None]",,,"Лубни(зав.Автомаш), Полтавська область"
"['49.58299', '33.42712']",49.58299,33.42712,"Біляки, Полтавська область"
"['49.58844', '33.3654']",49.58844,33.3654,"Заїчинці, Полтавська область"
"[None, None]",,,"Лохвийя, Полтавська область"
"['49.6548', '32.73911']",49.6548,32.73911,"Горошине, Полтавська область"
"['49.70409', '33.65047']",49.70409,33.65047,"Степанівка, Полтавська область"
"['49.72495', '32.75251']",49.72495,32.75251,"Старий Калкаїв, Полтавська область"
"['49.72641', '32.88423']",49.72641,32.88423,"Строкачі, Полтавська область"
"['49.83706', '34.66827']",49.83706,34.66827,"Матвіївка, Полтавська область"
"['50.11712', '32.4361']",50.11712,32.4361,"Гребінка, Полтавська область"
"['50.44679', '33.88299']",50.44679,33.88299,"Глибока Долина, Полтавська область"
"['49.53786', '35.20086']",49.53786,35.20086,"Варварівка, Полтавська область"
"['49.82501', '34.52787']",49.82501,34.52787,"Диканька, Полтавська область"
"['49.51198', '35.28318']",49.51198,35.28318,"Халтурино, Полтавська область"
"['50.3162', '32.23264']",50.3162,32.23264,"Березова Рудка, Полтавська область"
"['49.0518', '33.72811']",49.0518,33.72811,"Пришиб, Полтавська область"
"['49.38104', '32.97172']",49.38104,32.97172,"Броварки, Полтавська область"
"['49.23458', '33.13613']",49.23458,33.13613,"Градизьк, Полтавська область"
"['49.27884', '33.91136']",49.27884,33.91136,"Задовга, Полтавська область"
"['49.4202', '33.85422']",49.4202,33.85422,"Говтва, Полтавська область"
"['49.51003', '34.32712']",49.51003,34.32712,"Калашники, Полтавська область"
"['49.90278', '33.5389']",49.90278,33.5389,"Рибальське, Полтавська область"
"['49.8585', '33.01351']",49.8585,33.01351,"Березняки, Полтавська область"
"['50.14397', '34.38908']",50.14397,34.38908,"Шилівка, Полтавська область"
"['49.38624', '33.99667']",49.38624,33.99667,"Шамраївка, Полтавська область"
"['50.01565', '33.69863']",50.01565,33.69863,"Зубівка, Полтавська область"
"['48.93333', '34.11667']",48.93333,34.11667,"Пологи, Полтавська область"
"['49.39037', '34.57445']",49.39037,34.57445,"Мала Перещепина, Полтавська область"
"[None, None]",,,"Мозолівка, Полтавська область"
"['49.46346', '32.81756']",49.46346,32.81756,"Святилівка, Полтавська область"
"[None, None]",,,"Горбанівка(племоб’єднання), Полтавська область"
"['49.54956', '33.76091']",49.54956,33.76091,"Остап'є, Полтавська область"
"['49.64194', '33.54726']",49.64194,33.54726,"Радивонівка, Полтавська область"
"['49.34395', '34.31084']",49.34395,34.31084,"Нові Санжари, Полтавська область"
"['49.12862', '34.52211']",49.12862,34.52211,"Лівенське, Полтавська область"
"['49.90392', '34.26243']",49.90392,34.26243,"Павлівка, Полтавська область"
"[None, None]",,,"Новопавлівка, Полтавська область"
"[None, None]",,,"В.Багачка, Полтавська область"
"['49.79116', '33.72258']",49.79116,33.72258,"Велика Багачка, Полтавська область"
"['49.38784', '33.25959']",49.38784,33.25959,"Глобине, Полтавська область"
"['49.60782', '34.44852']",49.60782,34.44852,"Гожули, Полтавська область"
"['49.55632', '33.47643']",49.55632,33.47643,"Радалівка, Полтавська область"
"['49.37576', '35.20983']",49.37576,35.20983,"Ланна, Полтавська область"
"['49.58648', '35.29425']",49.58648,35.29425,"Білухівка, Полтавська область"
"['49.42735', '34.12723']",49.42735,34.12723,"Пасічне, Полтавська область"
"[None, None]",,,"Кременчук АС, Полтавська область"
"['51.00094', '26.75106']",51.00094,26.75106,"Березне, Рівненська область"
"['50.62308', '26.22743']",50.62308,26.22743,"Рівне, Рівненська область"
"['50.82538', '26.99869']",50.82538,26.99869,"Соснове, Рівненська область"
"['51.3509', '25.84738']",51.3509,25.84738,"Вараш, Рівненська область"
"['51.4213', '26.14469']",51.4213,26.14469,"Володимирець, Рівненська область"
"[None, None]",,,"Рівне ПВА, Рівненська область"
"['50.42814', '25.33619']",50.42814,25.33619,"Демидівка, Рівненська область"
"['50.41694', '25.73432']",50.41694,25.73432,"Дубно, Рівненська область"
"['50.42459', '25.79757']",50.42459,25.79757,"Рачин, Рівненська область"
"['51.57438', '26.56503']",51.57438,26.56503,"Дубровиця, Рівненська область"
"['51.6685', '26.97329']",51.6685,26.97329,"Будимля, Рівненська область"
"['51.68979', '26.14564']",51.68979,26.14564,"Дібрівськ, Рівненська область"
"['51.8126', '26.12902']",51.8126,26.12902,"Зарічне, Рівненська область"
"[None, None]",,,"Дібрівськ АС, Рівненська область"
"[None, None]",,,"Мізоч АС, Рівненська область"
"['50.33328', '26.22558']",50.33328,26.22558,"Борщівка Друга, Рівненська область"
"['50.61655', '27.16055']",50.61655,27.16055,"Корець, Рівненська область"
"[None, None]",,,"Рівне АС «Чайка», Рівненська область"
"['50.87841', '26.45192']",50.87841,26.45192,"Костопіль, Рівненська область"
"['51.15', '26.15']",51.15,26.15,"Гута, Рівненська область"
"['50.83184', '26.09372']",50.83184,26.09372,"Дюксин, Рівненська область"
"['50.86436', '26.04844']",50.86436,26.04844,"Деражне, Рівненська область"
"['50.509', '25.61675']",50.509,25.61675,"Млинів, Рівненська область"
"['50.4375', '26.49321']",50.4375,26.49321,"Станція ""Острог"", Рівненська область"
"[None, None]",,,"Ст. ""Острог"", Рівненська область"
"['50.32942', '26.51425']",50.32942,26.51425,"Острог, Рівненська область"
"['50.12994', '25.25576']",50.12994,25.25576,"Радивилів, Рівненська область"
"['50.26769', '25.4623']",50.26769,25.4623,"Козин, Рівненська область"
"[None, None]",,,"Рівне ПВА/ АС, Рівненська область"
"['51.2796', '27.214']",51.2796,27.214,"Рокитне, Рівненська область"
"['51.33795', '26.60191']",51.33795,26.60191,"Сарни, Рівненська область"
"[None, None]",,,"Степань АС, Рівненська область"
"['51.12958', '26.30052']",51.12958,26.30052,"Степань, Рівненська область"
"['51.35061', '26.36225']",51.35061,26.36225,"Тутовичі, Рівненська область"
"['50.66346', '24.59826']",50.66346,24.59826,"Новий Загорів, Волинська область"
"['50.737', '24.64944']",50.737,24.64944,"Локачі, Волинська область"
"['50.72576', '24.16265']",50.72576,24.16265,"Нововолинськ, Волинська область"
"['50.63879', '24.36003']",50.63879,24.36003,"Іваничі, Волинська область"
"['50.59273', '24.76475']",50.59273,24.76475,"Колпитів, Волинська область"
"['50.67787', '24.85179']",50.67787,24.85179,"Линів, Волинська область"
"[None, None]",,,"Кисилин, Волинська область"
"['50.75932', '25.34244']",50.75932,25.34244,"Луцьк, Волинська область"
"['50.83153', '25.96003']",50.83153,25.96003,"Яківці, Волинська область"
"['50.83219', '25.88635']",50.83219,25.88635,"Цумань, Волинська область"
"[None, None]",,,"Гряда, Волинська область"
"['51.21526', '24.70867']",51.21526,24.70867,"Ковель, Волинська область"
"['50.4102', '24.74718']",50.4102,24.74718,"Брани, Волинська область"
"['51.45673', '24.75426']",51.45673,24.75426,"Мильці, Волинська область"
"['50.91542', '25.26906']",50.91542,25.26906,"Рожище, Волинська область"
"['50.89729', '25.35376']",50.89729,25.35376,"Ольганівка, Волинська область"
"['50.83425', '25.45821']",50.83425,25.45821,"Ківерці, Волинська область"
"['51.10016', '24.47495']",51.10016,24.47495,"Кульчин, Волинська область"
"['51.6683', '24.5303']",51.6683,24.5303,"Ратне, Волинська область"
"['51.43762', '24.43997']",51.43762,24.43997,"Стара Вижівка, Волинська область"
"['50.82437', '25.84596']",50.82437,25.84596,"Башлики, Волинська область"
"['50.70912', '25.74591']",50.70912,25.74591,"Жорнище, Волинська область"
"['50.66365', '24.24918']",50.66365,24.24918,"Благодатне, Волинська область"
"['51.18231', '24.61776']",51.18231,24.61776,"Люблинець, Волинська область"
"['51.62912', '24.12636']",51.62912,24.12636,"Гута, Волинська область"
"['51.58212', '24.49588']",51.58212,24.49588,"Глухи, Волинська область"
"['51.10081', '25.66845']",51.10081,25.66845,"Колки, Волинська область"
"['51.05144', '25.61502']",51.05144,25.61502,"Ситниця, Волинська область"
"['51.50208', '23.93806']",51.50208,23.93806,"Шацьк, Волинська область"
"['51.83397', '24.72195']",51.83397,24.72195,"Межисить, Волинська область"
"['51.88931', '24.89811']",51.88931,24.89811,"Хабарище, Волинська область"
"['51.10066', '23.8943']",51.10066,23.8943,"Висоцьк, Волинська область"
"['51.87268', '24.68455']",51.87268,24.68455,"Березники, Волинська область"
"['50.73767', '25.43058']",50.73767,25.43058,"Струмівка, Волинська область"
"['51.78439', '24.86463']",51.78439,24.86463,"Щитинь, Волинська область"
"['51.78926', '25.4674']",51.78926,25.4674,"Проходи, Волинська область"
"['50.92969', '25.359']",50.92969,25.359,"Єлизаветин, Волинська область"
"['51.45416', '25.21723']",51.45416,25.21723,"Великий Обзир, Волинська область"
"['51.0521', '24.82534']",51.0521,24.82534,"Пересіка, Волинська область"
"['51.87416', '24.98791']",51.87416,24.98791,"Невір, Волинська область"
"['51.13744', '25.22103']",51.13744,25.22103,"Сільце, Волинська область"
"['51.37445', '25.21886']",51.37445,25.21886,"Бережниця, Волинська область"
"['51.4159', '24.24301']",51.4159,24.24301,"Стара Гута, Волинська область"
"['51.66231', '25.17545']",51.66231,25.17545,"Кримне, Волинська область"
"['50.88579', '24.85494']",50.88579,24.85494,"Студині, Волинська область"
"['51.5234', '24.76123']",51.5234,24.76123,"Датинь, Волинська область"
"['50.67372', '25.10767']",50.67372,25.10767,"Коршів, Волинська область"
"[None, None]",,,"Богунівка, Волинська область"
"['50.50186', '24.76149']",50.50186,24.76149,"Горохів, Волинська область"
"['50.38374', '24.9821']",50.38374,24.9821,"Диковини, Волинська область"
"['51.07344', '25.48019']",51.07344,25.48019,"Боровичі, Волинська область"
"['50.41474', '25.16132']",50.41474,25.16132,"Гумнище, Волинська область"
"['51.0448', '25.29374']",51.0448,25.29374,"Духче, Волинська область"
"['50.6317', '24.27185']",50.6317,24.27185,"Заболотці, Волинська область"
"['50.59628', '24.26973']",50.59628,24.26973,"Заставне, Волинська область"
"['50.67752', '24.09426']",50.67752,24.09426,"Кречів, Волинська область"
"['50.64287', '24.18707']",50.64287,24.18707,"Литовеж, Волинська область"
"['51.0479', '25.89833']",51.0479,25.89833,"Гораймівка, Волинська область"
"['50.93542', '25.2428']",50.93542,25.2428,"Дмитрівка, Волинська область"
"['50.71855', '25.81251']",50.71855,25.81251,"Олика, Волинська область"
"['51.38643', '23.78367']",51.38643,23.78367,"Столинські Смоляри, Волинська область"
"['51.76535', '25.5142']",51.76535,25.5142,"Любешів, Волинська область"
"['51.08644', '24.52294']",51.08644,24.52294,"Турійськ, Волинська область"
"['51.91115', '25.21866']",51.91115,25.21866,"Мукошин, Волинська область"
"['51.88554', '25.13066']",51.88554,25.13066,"Ветли, Волинська область"
"['50.70842', '24.18002']",50.70842,24.18002,"Будятичі, Волинська область"
"['51.72906', '25.17076']",51.72906,25.17076,"Залаззя, Волинська область"
"['51.2691', '25.92664']",51.2691,25.92664,"Козлиничі, Волинська область"
"['51.65279', '25.15686']",51.65279,25.15686,"Брониця, Волинська область"
"[None, None]",,,"Луцьк (залізничний вокзал), Волинська область"
"['51.64726', '25.57808']",51.64726,25.57808,"Лобна, Волинська область"
"['51.5142', '23.78196']",51.5142,23.78196,"Пульмо, Волинська область"
"['51.75107', '25.34909']",51.75107,25.34909,"Деревок, Волинська область"
"['50.78272', '24.851']",50.78272,24.851,"Затурці, Волинська область"
"['50.73077', '24.22693']",50.73077,24.22693,"Гряди, Волинська область"
"[None, None]",,,"шахта Бужанська, Волинська область"
"['50.67686', '25.18949']",50.67686,25.18949,"Ратнів, Волинська область"
"['50.53333', '25.08333']",50.53333,25.08333,"Ниви Губинські, Волинська область"
"['51.81586', '25.0517']",51.81586,25.0517,"Велика Глуша, Волинська область"
"['51.16841', '23.87155']",51.16841,23.87155,"Бережці, Волинська область"
"[None, None]",,,"санаторій Лісова Пісня, Волинська область"
"['51.68843', '24.40919']",51.68843,24.40919,"Жиричі, Волинська область"
"['50.47334', '25.00803']",50.47334,25.00803,"Новосілки, Волинська область"
"['51.41475', '24.05393']",51.41475,24.05393,"Крушинець, Волинська область"
"['51.53981', '23.71092']",51.53981,23.71092,"Пулемець, Волинська область"
"['51.36209', '25.81352']",51.36209,25.81352,"Колодії, Волинська область"
"['51.34241', '24.28155']",51.34241,24.28155,"Рудня, Волинська область"
"[None, None]",,,"Забужжя, Волинська область"
"['51.24551', '24.70714']",51.24551,24.70714,"Вербка, Волинська область"
"['51.13781', '25.37883']",51.13781,25.37883,"Угли, Волинська область"
"['50.63406', '24.69482']",50.63406,24.69482,"Конюхи, Волинська область"
"['51.31644', '24.2654']",51.31644,24.2654,"Чорноплеси, Волинська область"
"['51.26731', '23.83366']",51.26731,23.83366,"Борове, Волинська область"
"['51.22601', '24.03727']",51.22601,24.03727,"Любомль, Волинська область"
"['50.65108', '25.35628']",50.65108,25.35628,"Вербаїв, Волинська область"
"['51.58197', '24.73726']",51.58197,24.73726,"Велимче, Волинська область"
"['51.54908', '24.68092']",51.54908,24.68092,"Дошне, Волинська область"
"['50.61795', '25.38434']",50.61795,25.38434,"Лучиці, Волинська область"
"['50.76645', '25.24022']",50.76645,25.24022,"Боголюби, Волинська область"
"['50.26487', '28.67669']",50.26487,28.67669,"Житомир, Житомирська область"
"['51.3246', '28.80351']",51.3246,28.80351,"Овруч, Житомирська область"
"['51.39953', '28.27909']",51.39953,28.27909,"Бігунь, Житомирська область"
"['51.34211', '28.35019']",51.34211,28.35019,"ЛИСТВИН, Житомирська область"
"['51.37893', '28.34967']",51.37893,28.34967,"Словечне, Житомирська область"
"['50.2983', '28.53343']",50.2983,28.53343,"Іванівка, Житомирська область"
"['50.31333', '29.58634']",50.31333,29.58634,"ЛАЗАРІВКА, Житомирська область"
"[None, None]",,,"СТАНИШІВКА ЖРЛ, Житомирська область"
"['51.22482', '27.65228']",51.22482,27.65228,"Олевськ, Житомирська область"
"['50.80428', '27.60849']",50.80428,27.60849,"ВЕЛИКА ЦВІЛЯ, Житомирська область"
"['50.59484', '28.44489']",50.59484,28.44489,"ХОРОШІВ, Житомирська область"
"['50.87349', '27.80604']",50.87349,27.80604,"Ємільчине, Житомирська область"
"['51.03333', '28.18333']",51.03333,28.18333,"Калинівка, Житомирська область"
"['51.08203', '28.40057']",51.08203,28.40057,"Лугини, Житомирська область"
"['51.35902', '29.30524']",51.35902,29.30524,"Радча, Житомирська область"
"['50.95937', '28.63855']",50.95937,28.63855,"Коростень, Житомирська область"
"['51.02512', '27.44829']",51.02512,27.44829,"Жовтневе, Житомирська область"
"['51.20286', '29.08228']",51.20286,29.08228,"НАРОДИЧІ, Житомирська область"
"['51.5671', '29.07769']",51.5671,29.07769,"ВИСТУПОВИЧІ, Житомирська область"
"['51.17262', '28.45651']",51.17262,28.45651,"ЛИПНИКИ, Житомирська область"
"['49.89928', '28.60235']",49.89928,28.60235,"Бердичів, Житомирська область"
"['49.91667', '28.51667']",49.91667,28.51667,"ПІДГОРОДНЕ, Житомирська область"
"['49.99891', '28.78498']",49.99891,28.78498,"НИКОНІВКА, Житомирська область"
"['49.82864', '28.62742']",49.82864,28.62742,"ХАЖИН, Житомирська область"
"['49.83843', '28.51096']",49.83843,28.51096,"МАРКУШІ, Житомирська область"
"['50.62235', '28.69977']",50.62235,28.69977,"КАМ'ЯНИЙ БРІД, Житомирська область"
"['50.37053', '28.01942']",50.37053,28.01942,"НАТАЛІЯ, Житомирська область"
"['50.37332', '27.98742']",50.37332,27.98742,"Довбиш, Житомирська область"
"['50.13657', '29.36961']",50.13657,29.36961,"Мар'янівка, Житомирська область"
"['50.38081', '27.83204']",50.38081,27.83204,"ТАРТАК, Житомирська область"
"['50.77233', '29.23833']",50.77233,29.23833,"Малин, Житомирська область"
"['50.7266', '29.31645']",50.7266,29.31645,"ВІЗНЯ, Житомирська область"
"[None, None]",,,"ТЕТЕРІВКА, Житомирська область"
"[None, None]",,,"КЛІТЧИН, Житомирська область"
"['51.04337', '29.29591']",51.04337,29.29591,"Базар, Житомирська область"
"[None, None]",,,"В. ЦВІЛЯ, Житомирська область"
"['49.90837', '28.09109']",49.90837,28.09109,"ТРОЩА, Житомирська область"
"['50', '28.16667']",50,28.16667,"Чуднів, Житомирська область"
"['50.03854', '29.13001']",50.03854,29.13001,"ЗАРУБИНЦІ, Житомирська область"
"['49.79354', '29.20746']",49.79354,29.20746,"КРИЛІВКА, Житомирська область"
"['50.10099', '28.93269']",50.10099,28.93269,"КОТЕЛЬНЯ, Житомирська область"
"['49.92924', '29.1168']",49.92924,29.1168,"ЛЕБЕДИНЦІ, Житомирська область"
"[None, None]",,,"М.П'ЯТИГІРКА, Житомирська область"
"['50.02288', '29.02023']",50.02288,29.02023,"Андрушівка, Житомирська область"
"['49.9886', '29.11383']",49.9886,29.11383,"МІНЬКІВЦІ, Житомирська область"
"['50.63394', '28.26219']",50.63394,28.26219,"СТАВКИ, Житомирська область"
"[None, None]",,,"Безпечна, Житомирська область"
"['49.76038', '29.3015']",49.76038,29.3015,"ЯГНЯТИН, Житомирська область"
"['49.9476', '29.62951']",49.9476,29.62951,"ПОЧУЙКИ, Житомирська область"
"['50.29691', '27.6622']",50.29691,27.6622,"Баранівка, Житомирська область"
"['50.06764', '27.69776']",50.06764,27.69776,"КОЛОДЯЖНЕ, Житомирська область"
"['49.87993', '27.82215']",49.87993,27.82215,"Авратин, Житомирська область"
"['50.03508', '28.17738']",50.03508,28.17738,"КОРОЧЕНКИ, Житомирська область"
"['50.08388', '28.02031']",50.08388,28.02031,"СТОВПІВ, Житомирська область"
"[None, None]",,,"Бристіївка, Житомирська область"
"['50.0953', '29.53581']",50.0953,29.53581,"КОРНИН, Житомирська область"
"[None, None]",,,"В.БРАТАЛІВ, Житомирська область"
"['50.27985', '28.77789']",50.27985,28.77789,"ГЛИБОЧИЦЯ, Житомирська область"
"['50.21982', '28.72897']",50.21982,28.72897,"СТАНИШІВКА, Житомирська область"
"[None, None]",,,"Н.БЕРЕЗИНА, Житомирська область"
"['49.86249', '28.21449']",49.86249,28.21449,"Іванопіль, Житомирська область"
"['50.78053', '28.40571']",50.78053,28.40571,"Вишневе, Житомирська область"
"['50.40793', '27.57079']",50.40793,27.57079,"СУЄМЦІ, Житомирська область"
"['49.79467', '27.92372']",49.79467,27.92372,"СУСЛІВКА, Житомирська область"
"['50.28449', '29.52626']",50.28449,29.52626,"Брусилів, Житомирська область"
"[None, None]",,,"КОВГАНІВКА, Житомирська область"
"['49.92045', '27.75918']",49.92045,27.75918,"Любар, Житомирська область"
"['50.68196', '28.0165']",50.68196,28.0165,"Березівка, Житомирська область"
"['49.75041', '27.78694']",49.75041,27.78694,"Бичова, Житомирська область"
"['49.82491', '28.16489']",49.82491,28.16489,"ЖЕРЕБКИ, Житомирська область"
"['50.287', '29.5917']",50.287,29.5917,"ДУБРІВКА, Житомирська область"
"['50.49613', '29.22911']",50.49613,29.22911,"Радомишль, Житомирська область"
"['49.84302', '27.92745']",49.84302,27.92745,"СТЕТКІВЦІ, Житомирська область"
"['49.7228', '29.20455']",49.7228,29.20455,"Ружин, Житомирська область"
"['49.80841', '29.30585']",49.80841,29.30585,"ВЕРХІВНЯ, Житомирська область"
"['50.98101', '29.11422']",50.98101,29.11422,"САВЛУКИ, Житомирська область"
"['50.82523', '28.84892']",50.82523,28.84892,"МЕЛЕНІ, Житомирська область"
"[None, None]",,,"Баришівка, Житомирська область"
"['50.31723', '29.0563']",50.31723,29.0563,"Коростишів, Житомирська область"
"['50.10802', '27.70303']",50.10802,27.70303,"МИРОПІЛЬ, Житомирська область"
"['50.14802', '27.93124']",50.14802,27.93124,"Романів, Житомирська область"
"['50.29285', '27.98314']",50.29285,27.98314,"Биківка, Житомирська область"
"['50.40616', '28.8917']",50.40616,28.8917,"ЩЕНІЇВ, Житомирська область"
"['50.51125', '28.9606']",50.51125,28.9606,"ТОРЧИН, Житомирська область"
"[None, None]",,,"МАЛИН АС, Житомирська область"
"['49.88169', '29.29035']",49.88169,29.29035,"Макарівка, Житомирська область"
"[None, None]",,,"КОРОСТЕНЬ АС, Житомирська область"
"['50.02248', '29.05821']",50.02248,29.05821,"Лісівка, Житомирська область"
"['50.28595', '27.46168']",50.28595,27.46168,"ЖАРИ, Житомирська область"
"['50.37942', '27.47706']",50.37942,27.47706,"МИРОСЛАВЛЬ, Житомирська область"
"['50.25836', '27.68809']",50.25836,27.68809,"ПОЛЯНКА, Житомирська область"
"['51.46047', '28.28493']",51.46047,28.28493,"Дуби, Житомирська область"
"[None, None]",,,"Голодець, Житомирська область"
"['49.85736', '27.98779']",49.85736,27.98779,"МОЛОЧКИ, Житомирська область"
"['46.76644', '36.79872']",46.76644,36.79872,"Бердянськ, Запорізька область"
"['47.82289', '35.19031']",47.82289,35.19031,"Запоріжжя, Запорізька область"
"['46.82554', '36.89309']",46.82554,36.89309,"Новопетрівка, Запорізька область"
"['46.73479', '36.34425']",46.73479,36.34425,"Приморськ, Запорізька область"
"['47.26558', '36.16945']",47.26558,36.16945,"Новоказанкувате, Запорізька область"
"['47.48444', '36.25361']",47.48444,36.25361,"Пологи, Запорізька область"
"[None, None]",,,"Куйбишеве (АС), Запорізька область"
"['47.49865', '34.6574']",47.49865,34.6574,"Енергодар, Запорізька область"
"['46.81327', '34.91311']",46.81327,34.91311,"Петрівка, Запорізька область"
"['46.65671', '36.2305']",46.65671,36.2305,"Набережне, Запорізька область"
"['47.25522', '35.71238']",47.25522,35.71238,"Токмак, Запорізька область"
"['47.20177', '35.60219']",47.20177,35.60219,"Молочанськ, Запорізька область"
"['46.68779', '36.21242']",46.68779,36.21242,"Преслав, Запорізька область"
"['46.68071', '35.96599']",46.68071,35.96599,"Райнівка, Запорізька область"
"['46.75017', '36.07821']",46.75017,36.07821,"Інзівка, Запорізька область"
"[None, None]",,,"Чернігівка (АС), Запорізька область"
"['46.84891', '35.36533']",46.84891,35.36533,"Мелітополь, Запорізька область"
"['46.91378', '36.11279']",46.91378,36.11279,"Мануйлівка, Запорізька область"
"['47.66389', '36.25633']",47.66389,36.25633,"Гуляйполе, Запорізька область"
"['47.08292', '35.51163']",47.08292,35.51163,"Світлодолинське, Запорізька область"
"['47.01479', '34.91504']",47.01479,34.91504,"Веселе, Запорізька область"
"['47.65311', '35.69512']",47.65311,35.69512,"Кірове, Запорізька область"
"[None, None]",,,"Кирилівка (АС), Запорізька область"
"['46.47722', '35.54453']",46.47722,35.54453,"Степанівка Перша, Запорізька область"
"['46.59717', '35.68568']",46.59717,35.68568,"Новокостянтинівка, Запорізька область"
"['47.36105', '35.47583']",47.36105,35.47583,"Чорноземне, Запорізька область"
"['47.02662', '36.87138']",47.02662,36.87138,"Миколаївка, Запорізька область"
"['47.05', '35.86036']",47.05,35.86036,"Ударник, Запорізька область"
"[None, None]",,,"Піскошене, Запорізька область"
"['46.45224', '35.10375']",46.45224,35.10375,"Атманай, Запорізька область"
"[None, None]",,,"Далеке (Веселівський район), Запорізька область"
"['47.56731', '35.78575']",47.56731,35.78575,"Оріхів, Запорізька область"
"['47.62545', '35.51158']",47.62545,35.51158,"Новояковлівка, Запорізька область"
"[None, None]",,,"Більмак, Запорізька область"
"[None, None]",,,"Григорівка (Пологівський район), Запорізька область"
"['47.57863', '36.83531']",47.57863,36.83531,"Надійне, Запорізька область"
"['46.9394', '35.77207']",46.9394,35.77207,"Розівка, Запорізька область"
"['47.31336', '36.69225']",47.31336,36.69225,"Новокам’янка, Запорізька область"
"['47.54711', '36.5467']",47.54711,36.5467,"Чубарівка, Запорізька область"
"['47.43451', '37.21235']",47.43451,37.21235,"Вишнювате, Запорізька область"
"['47.42932', '35.98282']",47.42932,35.98282,"Вербове, Запорізька область"
"['47.68995', '36.02002']",47.68995,36.02002,"Копані, Запорізька область"
"['47.47325', '34.69612']",47.47325,34.69612,"Новоукраїнка, Запорізька область"
"['47.70557', '36.01772']",47.70557,36.01772,"Долинка, Запорізька область"
"['47.47051', '35.34496']",47.47051,35.34496,"Лісне, Запорізька область"
"['47.57194', '35.81667']",47.57194,35.81667,"Преображенка, Запорізька область"
"['47.79089', '35.7348']",47.79089,35.7348,"Новотроїцьке, Запорізька область"
"['47.13664', '34.5719']",47.13664,34.5719,"Добровольчеське, Запорізька область"
"[None, None]",,,"Ільїнка, Запорізька область"
"['47.38169', '34.97652']",47.38169,34.97652,"Дніпрорудне, Запорізька область"
"['47.85133', '34.92336']",47.85133,34.92336,"Петрівське, Запорізька область"
"['47.96859', '35.3658']",47.96859,35.3658,"Любимівка, Запорізька область"
"['47.82354', '36.57215']",47.82354,36.57215,"Темирівка, Запорізька область"
"['48.04409', '36.02368']",48.04409,36.02368,"Горлицьке, Запорізька область"
"['47.79977', '36.04605']",47.79977,36.04605,"Різдвянка, Запорізька область"
"[None, None]",,,"Ульянівка, Запорізька область"
"['48.049', '35.80646']",48.049,35.80646,"Каштанівка, Запорізька область"
"['47.1399', '36.8016']",47.1399,36.8016,"Берестове, Запорізька область"
"['47.81256', '36.43567']",47.81256,36.43567,"Новогригорівка, Запорізька область"
"['47.76488', '35.96621']",47.76488,35.96621,"Любицьке, Запорізька область"
"[None, None]",,,"Новомиколаївка (АС), Запорізька область"
"['47.90866', '36.10815']",47.90866,36.10815,"Благодатне, Запорізька область"
"['48.09529', '35.64818']",48.09529,35.64818,"Уральське, Запорізька область"
"['47.57781', '36.11301']",47.57781,36.11301,"Мирне, Запорізька область"
"['47.85015', '35.76185']",47.85015,35.76185,"Листівка, Запорізька область"
"[None, None]",,,"Приазовське (АС), Запорізька область"
"[None, None]",,,"Переможне (Токмацький район), Запорізька область"
"['48.0558', '35.77301']",48.0558,35.77301,"Петропавлівське, Запорізька область"
"[None, None]",,,"с. Пологи, Запорізька область"
"['47.53563', '35.89293']",47.53563,35.89293,"Мала Токмачка, Запорізька область"
"['46.45', '35.11667']",46.45,35.11667,"Солоне, Запорізька область"
"['47.13066', '35.21866']",47.13066,35.21866,"Підгірне, Запорізька область"
"['46.67556', '35.00399']",46.67556,35.00399,"Тернівка, Запорізька область"
"['47.27235', '35.22235']",47.27235,35.22235,"Михайлівка, Запорізька область"
"[None, None]",,,"Лук’янівське, Запорізька область"
"['47.91548', '34.90304']",47.91548,34.90304,"Широке, Запорізька область"
"['47.6449', '35.29074']",47.6449,35.29074,"Приморське, Запорізька область"
"['47.58885', '35.36312']",47.58885,35.36312,"Степногірськ, Запорізька область"
"['47.24737', '34.93457']",47.24737,34.93457,"Мала Білозерка, Запорізька область"
"[None, None]",,,"Приморьське, Запорізька область"
"['47.29365', '34.92502']",47.29365,34.92502,"Новобілозерка, Запорізька область"
"[None, None]",,,"В. Криниця, Запорізька область"
"['47.60142', '35.5127']",47.60142,35.5127,"Павлівка, Запорізька область"
"[None, None]",,,"Василівка (АС), Запорізька область"
"['48.02273', '35.42196']",48.02273,35.42196,"Новогупалівка, Запорізька область"
"[None, None]",,,"Матвіївка (ст. Янцеве), Запорізька область"
"['47.94381', '35.43539']",47.94381,35.43539,"Вільнянськ, Запорізька область"
"['47.69264', '35.34882']",47.69264,35.34882,"Григорівка, Запорізька область"
"['47.7535', '35.13795']",47.7535,35.13795,"Розумівка, Запорізька область"
"[None, None]",,,"Мар’ївка, Запорізька область"
"['47.27511', '34.58922']",47.27511,34.58922,"Качкарівка, Запорізька область"
"[None, None]",,,"Мелітополь (АС), Запорізька область"
"['47.1841', '35.11625']",47.1841,35.11625,"Тимошівка, Запорізька область"
"['47.81608', '35.45929']",47.81608,35.45929,"Новотавричеське, Запорізька область"
"['46.75073', '36.37774']",46.75073,36.37774,"Банівка, Запорізька область"
"['47.37061', '35.54363']",47.37061,35.54363,"Новогорівка, Запорізька область"
"[None, None]",,,"Запоріжжя (Токмацький район), Запорізька область"
"['47.09804', '35.66334']",47.09804,35.66334,"Курошани, Запорізька область"
"['47.39196', '35.36469']",47.39196,35.36469,"Зелений Гай, Запорізька область"
"['47.27211', '35.4972']",47.27211,35.4972,"Новолюбимівка, Запорізька область"
"[None, None]",,,"Лагідне, Запорізька область"
"['51.19912', '33.83523']",51.19912,33.83523,"Буринь, Сумська область"
"['50.40561', '35.39705']",50.40561,35.39705,"Ямне, Сумська область"
"['50.37934', '35.27958']",50.37934,35.27958,"Добрянське, Сумська область"
"['51.24032', '33.20263']",51.24032,33.20263,"Конотоп, Сумська область"
"['50.48478', '34.96567']",50.48478,34.96567,"Тростянець, Сумська область"
"['50.31036', '34.89879']",50.31036,34.89879,"Охтирка, Сумська область"
"['51.33745', '33.87066']",51.33745,33.87066,"Путивль, Сумська область"
"['51.15016', '34.31287']",51.15016,34.31287,"Білопілля, Сумська область"
"['50.75104', '33.47471']",50.75104,33.47471,"Ромни, Сумська область"
"['50.87837', '33.23082']",50.87837,33.23082,"Посад, Сумська область"
"['50.9216', '34.80029']",50.9216,34.80029,"Суми, Сумська область"
"['50.31121', '34.47633']",50.31121,34.47633,"Комиші, Сумська область"
"['51.57167', '34.12167']",51.57167,34.12167,"Шалигіне, Сумська область"
"['50.71906', '33.78701']",50.71906,33.78701,"Рубанка, Сумська область"
"['50.72156', '33.99941']",50.72156,33.99941,"Горькове, Сумська область"
"['51.81518', '34.21406']",51.81518,34.21406,"Слобода, Сумська область"
"['51.1452', '33.63161']",51.1452,33.63161,"Леонтіївка, Сумська область"
"['50.86398', '35.2291']",50.86398,35.2291,"Наумівка, Сумська область"
"['50.80187', '35.38197']",50.80187,35.38197,"Покровка, Сумська область"
"['50.77458', '35.25965']",50.77458,35.25965,"Краснопілля, Сумська область"
"['51.22236', '34.62745']",51.22236,34.62745,"Ободи, Сумська область"
"['50.4041', '34.73718']",50.4041,34.73718,"Олешня, Сумська область"
"['50.25', '34.68144']",50.25,34.68144,"Рибальське, Сумська область"
"['51.86296', '33.4698']",51.86296,33.4698,"Шостка, Сумська область"
"['52.09786', '33.73547']",52.09786,33.73547,"Степне, Сумська область"
"['52.04545', '33.94517']",52.04545,33.94517,"Дружба, Сумська область"
"[None, None]",,,"С.Буда, Сумська область"
"['51.67822', '33.9162']",51.67822,33.9162,"Глухів, Сумська область"
"['51.54775', '33.38475']",51.54775,33.38475,"Кролевець, Сумська область"
"['50.58518', '34.4849']",50.58518,34.4849,"Лебедин, Сумська область"
"[None, None]",,,"В.Писарівка, Сумська область"
"['50.83398', '33.87626']",50.83398,33.87626,"Недригайлів, Сумська область"
"['50.91233', '33.98352']",50.91233,33.98352,"Іваниця, Сумська область"
"['50.66909', '33.30145']",50.66909,33.30145,"Артюхівка, Сумська область"
"['50.78778', '33.33188']",50.78778,33.33188,"Салогубівка, Сумська область"
"['50.92601', '33.58499']",50.92601,33.58499,"Сміле, Сумська область"
"['50.59641', '33.86563']",50.59641,33.86563,"Суха Грунь, Сумська область"
"['51.59422', '33.87682']",51.59422,33.87682,"Семенівка, Сумська область"
"[None, None]",,,"Л.Долина, Сумська область"
"[None, None]",,,"Беєво, Сумська область"
"['50.51294', '33.57383']",50.51294,33.57383,"Яганівка, Сумська область"
"[None, None]",,,"Грязне, Сумська область"
"['50.43949', '35.20684']",50.43949,35.20684,"Солдатське, Сумська область"
